[
  {
    "id": "apt-1762459646148-0",
    "repId": "rep57",
    "date": "2025-11-06",
    "timeSlot": "7pm",
    "customerName": "Christopher Harris",
    "customerPhone": "501-406-8772",
    "customerEmail": "christopher.harris@email.com",
    "address": {
      "street": "4508 Main St",
      "city": "RUSSELLVILLE",
      "state": "AR",
      "zip": "72802",
      "lat": 34.658852,
      "lng": -92.210796
    },
    "status": "scheduled",
    "createdAt": "2025-11-02T21:16:14.256Z"
  },
  {
    "id": "apt-1762459646148-1",
    "repId": "rep32",
    "date": "2025-11-07",
    "timeSlot": "10am",
    "customerName": "Michelle Walker",
    "customerPhone": "214-967-7949",
    "customerEmail": "michelle.walker@email.com",
    "address": {
      "street": "830 Main St",
      "city": "Spring",
      "state": "TX",
      "zip": "77388",
      "lat": 32.700666,
      "lng": -96.932378
    },
    "status": "scheduled",
    "createdAt": "2025-11-06T07:09:32.557Z"
  },
  {
    "id": "apt-1762459646148-2",
    "repId": "rep96",
    "date": "2025-11-12",
    "timeSlot": "7pm",
    "customerName": "Tom Wilson",
    "customerPhone": "601-789-1486",
    "customerEmail": "tom.wilson@email.com",
    "address": {
      "street": "4258 Main St",
      "city": "Southaven",
      "state": "MS",
      "zip": "38671",
      "lat": 32.471995,
      "lng": -90.268662
    },
    "status": "scheduled",
    "createdAt": "2025-11-03T06:33:03.365Z"
  },
  {
    "id": "apt-1762459646148-3",
    "repId": "rep59",
    "date": "2025-11-08",
    "timeSlot": "10am",
    "customerName": "Amanda Garcia",
    "customerPhone": "214-473-4841",
    "customerEmail": "amanda.garcia@email.com",
    "address": {
      "street": "9851 Main St",
      "city": "GREENVILLE",
      "state": "TX",
      "zip": "75401",
      "lat": 32.842343,
      "lng": -97.117404
    },
    "status": "scheduled",
    "createdAt": "2025-11-02T11:01:40.615Z"
  },
  {
    "id": "apt-1762459646148-4",
    "repId": "rep51",
    "date": "2025-11-09",
    "timeSlot": "2pm",
    "customerName": "Jessica Moore",
    "customerPhone": "601-812-3856",
    "customerEmail": "jessica.moore@email.com",
    "address": {
      "street": "1312 Main St",
      "city": "Carriere",
      "state": "MS",
      "zip": "39426",
      "lat": 32.251769,
      "lng": -90.164149
    },
    "status": "scheduled",
    "createdAt": "2025-10-31T17:26:50.420Z"
  },
  {
    "id": "apt-1762459646148-5",
    "repId": "rep73",
    "date": "2025-11-08",
    "timeSlot": "10am",
    "customerName": "David Lee",
    "customerPhone": "405-744-5201",
    "customerEmail": "david.lee@email.com",
    "address": {
      "street": "4592 Main St",
      "city": "Owasso",
      "state": "OK",
      "zip": "74055",
      "lat": 35.360178,
      "lng": -97.557481
    },
    "status": "scheduled",
    "createdAt": "2025-11-01T13:47:25.076Z"
  },
  {
    "id": "apt-1762459646148-6",
    "repId": "rep39",
    "date": "2025-11-12",
    "timeSlot": "10am",
    "customerName": "Emily White",
    "customerPhone": "601-866-7000",
    "customerEmail": "emily.white@email.com",
    "address": {
      "street": "8917 Main St",
      "city": "Olive Branch",
      "state": "MS",
      "zip": "38654",
      "lat": 32.168738,
      "lng": -89.994455
    },
    "status": "scheduled",
    "createdAt": "2025-11-04T22:22:03.983Z"
  },
  {
    "id": "apt-1762459646148-7",
    "repId": "rep66",
    "date": "2025-11-12",
    "timeSlot": "2pm",
    "customerName": "Tom Wilson",
    "customerPhone": "214-482-8688",
    "customerEmail": "tom.wilson@email.com",
    "address": {
      "street": "9483 Main St",
      "city": "Tyler",
      "state": "TX",
      "zip": "75709",
      "lat": 32.933079,
      "lng": -96.740204
    },
    "status": "scheduled",
    "createdAt": "2025-11-01T14:46:58.941Z"
  },
  {
    "id": "apt-1762459646148-8",
    "repId": "rep89",
    "date": "2025-11-10",
    "timeSlot": "10am",
    "customerName": "Christopher Harris",
    "customerPhone": "601-467-9086",
    "customerEmail": "christopher.harris@email.com",
    "address": {
      "street": "1945 Main St",
      "city": "Southaven",
      "state": "MS",
      "zip": "38671",
      "lat": 32.085432,
      "lng": -90.04242
    },
    "status": "scheduled",
    "createdAt": "2025-11-04T16:53:37.285Z"
  },
  {
    "id": "apt-1762459646148-9",
    "repId": "rep89",
    "date": "2025-11-08",
    "timeSlot": "10am",
    "customerName": "Matthew Hall",
    "customerPhone": "601-775-8717",
    "customerEmail": "matthew.hall@email.com",
    "address": {
      "street": "5047 Main St",
      "city": "Southaven",
      "state": "MS",
      "zip": "38671",
      "lat": 32.179212,
      "lng": -90.101944
    },
    "status": "scheduled",
    "createdAt": "2025-11-06T17:30:33.754Z"
  },
  {
    "id": "apt-1762459646148-10",
    "repId": "rep59",
    "date": "2025-11-06",
    "timeSlot": "2pm",
    "customerName": "James Anderson",
    "customerPhone": "214-640-4421",
    "customerEmail": "james.anderson@email.com",
    "address": {
      "street": "8695 Main St",
      "city": "GREENVILLE",
      "state": "TX",
      "zip": "75401",
      "lat": 32.945389,
      "lng": -96.977938
    },
    "status": "scheduled",
    "createdAt": "2025-10-31T05:45:40.244Z"
  },
  {
    "id": "apt-1762459646148-11",
    "repId": "rep58",
    "date": "2025-11-12",
    "timeSlot": "10am",
    "customerName": "Christopher Harris",
    "customerPhone": "501-489-0102",
    "customerEmail": "christopher.harris@email.com",
    "address": {
      "street": "6093 Main St",
      "city": "Royal",
      "state": "AR",
      "zip": "71968",
      "lat": 34.732634,
      "lng": -92.293368
    },
    "status": "scheduled",
    "createdAt": "2025-11-03T03:10:47.019Z"
  },
  {
    "id": "apt-1762459646148-12",
    "repId": "rep10",
    "date": "2025-11-11",
    "timeSlot": "2pm",
    "customerName": "Stephanie King",
    "customerPhone": "404-642-3274",
    "customerEmail": "stephanie.king@email.com",
    "address": {
      "street": "2203 Main St",
      "city": "NEWMAN",
      "state": "GA",
      "zip": "30265",
      "lat": 33.85334,
      "lng": -84.063892
    },
    "status": "scheduled",
    "createdAt": "2025-11-02T14:55:29.349Z"
  },
  {
    "id": "apt-1762459646148-13",
    "repId": "rep78",
    "date": "2025-11-11",
    "timeSlot": "2pm",
    "customerName": "Sarah Johnson",
    "customerPhone": "615-848-0254",
    "customerEmail": "sarah.johnson@email.com",
    "address": {
      "street": "5139 Main St",
      "city": "Collierville",
      "state": "TN",
      "zip": "38017",
      "lat": 36.231252,
      "lng": -86.882873
    },
    "status": "scheduled",
    "createdAt": "2025-11-06T01:34:17.373Z"
  },
  {
    "id": "apt-1762459646148-14",
    "repId": "rep19",
    "date": "2025-11-10",
    "timeSlot": "2pm",
    "customerName": "Tom Wilson",
    "customerPhone": "225-279-9039",
    "customerEmail": "tom.wilson@email.com",
    "address": {
      "street": "8744 Main St",
      "city": "BATON ROUGE",
      "state": "LA",
      "zip": "70817",
      "lat": 30.629034,
      "lng": -90.93856
    },
    "status": "scheduled",
    "createdAt": "2025-10-31T15:16:46.222Z"
  },
  {
    "id": "apt-1762459646148-15",
    "repId": "rep46",
    "date": "2025-11-08",
    "timeSlot": "2pm",
    "customerName": "Michelle Walker",
    "customerPhone": "843-741-6742",
    "customerEmail": "michelle.walker@email.com",
    "address": {
      "street": "4103 Main St",
      "city": "North Augusta",
      "state": "SC",
      "zip": "29860",
      "lat": 34.101487,
      "lng": -80.885525
    },
    "status": "scheduled",
    "createdAt": "2025-11-05T09:53:02.075Z"
  },
  {
    "id": "apt-1762459646148-16",
    "repId": "rep69",
    "date": "2025-11-10",
    "timeSlot": "2pm",
    "customerName": "Mike Davis",
    "customerPhone": "404-829-9312",
    "customerEmail": "mike.davis@email.com",
    "address": {
      "street": "4441 Main St",
      "city": "Morrow",
      "state": "GA",
      "zip": "30260",
      "lat": 33.518092,
      "lng": -84.445659
    },
    "status": "scheduled",
    "createdAt": "2025-11-04T08:35:23.642Z"
  },
  {
    "id": "apt-1762459646148-17",
    "repId": "rep50",
    "date": "2025-11-10",
    "timeSlot": "2pm",
    "customerName": "Daniel Lewis",
    "customerPhone": "615-342-3356",
    "customerEmail": "daniel.lewis@email.com",
    "address": {
      "street": "4332 Main St",
      "city": "Knoxville",
      "state": "TN",
      "zip": "37923",
      "lat": 36.280575,
      "lng": -86.667821
    },
    "status": "scheduled",
    "createdAt": "2025-11-04T08:18:19.374Z"
  },
  {
    "id": "apt-1762459646148-18",
    "repId": "rep60",
    "date": "2025-11-08",
    "timeSlot": "2pm",
    "customerName": "Amanda Garcia",
    "customerPhone": "214-686-4516",
    "customerEmail": "amanda.garcia@email.com",
    "address": {
      "street": "9159 Main St",
      "city": "Dallas",
      "state": "TX",
      "zip": "75212",
      "lat": 33.029164,
      "lng": -96.824447
    },
    "status": "scheduled",
    "createdAt": "2025-11-03T02:06:45.828Z"
  },
  {
    "id": "apt-1762459646148-19",
    "repId": "rep54",
    "date": "2025-11-12",
    "timeSlot": "10am",
    "customerName": "Tom Wilson",
    "customerPhone": "225-978-1430",
    "customerEmail": "tom.wilson@email.com",
    "address": {
      "street": "339 Main St",
      "city": "Greenwood",
      "state": "LA",
      "zip": "71033",
      "lat": 30.176502,
      "lng": -91.215795
    },
    "status": "scheduled",
    "createdAt": "2025-11-05T13:20:43.329Z"
  }
]