[
  {
    "id": "rep1",
    "name": "Grant Schmidt",
    "email": "grant.schmidt@company.com",
    "phone": "404-249-3812",
    "startingAddress": {
      "street": "2010 HOODS FORT CIR NW",
      "city": "KENNESAW",
      "state": "GA",
      "zip": "30144",
      "lat": 34.0234,
      "lng": -84.6155
    },
    "color": "#2563EB"
  },
  {
    "id": "rep2",
    "name": "Daniel Myers",
    "email": "daniel.myers@company.com",
    "phone": "214-805-4896",
    "startingAddress": {
      "street": "3701 DAYFLOWER AVE",
      "city": "MCKINNEY",
      "state": "TX",
      "zip": "75071",
      "lat": 33.1972,
      "lng": -96.6397
    },
    "color": "#10B981"
  },
  {
    "id": "rep3",
    "name": "Thomas Shannon",
    "email": "thomas.shannon@company.com",
    "phone": "404-909-0273",
    "startingAddress": {
      "street": "8605 Creekview Ct",
      "city": "Douglasville",
      "state": "GA",
      "zip": "30135",
      "lat": 33.7515,
      "lng": -84.7477
    },
    "color": "#F59E0B"
  },
  {
    "id": "rep4",
    "name": "Richard Suezaki",
    "email": "richard.suezaki@company.com",
    "phone": "214-682-4753",
    "startingAddress": {
      "street": "513 BRIARGLEN",
      "city": "COPPELL",
      "state": "TX",
      "zip": "75019",
      "lat": 32.9546,
      "lng": -97.015
    },
    "color": "#EF4444"
  },
  {
    "id": "rep5",
    "name": "Jerald Bales",
    "email": "jerald.bales@company.com",
    "phone": "501-938-0818",
    "startingAddress": {
      "street": "246 BAKERS CREEK RD",
      "city": "RUSSELLVILLE",
      "state": "AR",
      "zip": "72802",
      "lat": 35.2784,
      "lng": -93.1338
    },
    "color": "#8B5CF6"
  },
  {
    "id": "rep6",
    "name": "Derrick Jones",
    "email": "derrick.jones@company.com",
    "phone": "601-997-3996",
    "startingAddress": {
      "street": "6436 BARRETTS BEND",
      "city": "HORN LAKE",
      "state": "MS",
      "zip": "38637",
      "lat": 34.9554,
      "lng": -90.0348
    },
    "color": "#EC4899"
  },
  {
    "id": "rep7",
    "name": "Michael Symms",
    "email": "michael.symms@company.com",
    "phone": "205-242-6051",
    "startingAddress": {
      "street": "304 Lacey Avenue",
      "city": "Alabaster",
      "state": "AL",
      "zip": "35114",
      "lat": 33.2443,
      "lng": -86.8164
    },
    "color": "#06B6D4"
  },
  {
    "id": "rep8",
    "name": "Bryan Boswell",
    "email": "bryan.boswell@company.com",
    "phone": "404-652-9642",
    "startingAddress": {
      "street": "240 ANNELISE PARK DR",
      "city": "FAYETTEVILLE",
      "state": "GA",
      "zip": "30214",
      "lat": 33.4487,
      "lng": -84.4549
    },
    "color": "#84CC16"
  },
  {
    "id": "rep9",
    "name": "Toranado Sanders",
    "email": "toranado.sanders@company.com",
    "phone": "404-959-8841",
    "startingAddress": {
      "street": "3300 SABLE TR",
      "city": "SOUTH FULTON",
      "state": "GA",
      "zip": "30349",
      "lat": 33.6449,
      "lng": -84.448
    },
    "color": "#F97316"
  },
  {
    "id": "rep10",
    "name": "Leonardo Gutierrez",
    "email": "leonardo.gutierrez@company.com",
    "phone": "404-652-9858",
    "startingAddress": {
      "street": "13 BARBERRY DRIVE",
      "city": "NEWMAN",
      "state": "GA",
      "zip": "30265",
      "lat": 33.3807,
      "lng": -84.7997
    },
    "color": "#6366F1"
  },
  {
    "id": "rep11",
    "name": "James Griffin",
    "email": "james.griffin@company.com",
    "phone": "214-547-9646",
    "startingAddress": {
      "street": "15100 Ella Blvd Apt 610",
      "city": "Houston",
      "state": "TX",
      "zip": "77090",
      "lat": 29.7604,
      "lng": -95.3698
    },
    "color": "#14B8A6"
  },
  {
    "id": "rep12",
    "name": "Kevin Broadaway",
    "email": "kevin.broadaway@company.com",
    "phone": "205-873-0938",
    "startingAddress": {
      "street": "2339 Sycamore Church Road",
      "city": "Talladega",
      "state": "AL",
      "zip": "35160",
      "lat": 33.4359,
      "lng": -86.1058
    },
    "color": "#F43F5E"
  },
  {
    "id": "rep13",
    "name": "Bryan Saunders",
    "email": "bryan.saunders@company.com",
    "phone": "704-602-9586",
    "startingAddress": {
      "street": "2016 COOPER RD",
      "city": "GRAHAM",
      "state": "NC",
      "zip": "27253",
      "lat": 36.069,
      "lng": -79.4006
    },
    "color": "#A855F7"
  },
  {
    "id": "rep14",
    "name": "Stewart Jimmerson",
    "email": "stewart.jimmerson@company.com",
    "phone": "205-936-1863",
    "startingAddress": {
      "street": "4282 Lee Road 390",
      "city": "Opelika",
      "state": "AL",
      "zip": "36804",
      "lat": 32.6454,
      "lng": -85.3783
    },
    "color": "#3B82F6"
  },
  {
    "id": "rep15",
    "name": "George Etheredge",
    "email": "george.etheredge@company.com",
    "phone": "404-200-6361",
    "startingAddress": {
      "street": "3751 GA HWY 33 SOUTH",
      "city": "SYLVESTER",
      "state": "GA",
      "zip": "31791",
      "lat": 31.5307,
      "lng": -83.8355
    },
    "color": "#22C55E"
  },
  {
    "id": "rep16",
    "name": "Bill Downhour",
    "email": "bill.downhour@company.com",
    "phone": "225-348-3476",
    "startingAddress": {
      "street": "343 TANYARD TRACE",
      "city": "BENTON",
      "state": "LA",
      "zip": "71006",
      "lat": 32.6949,
      "lng": -93.7418
    },
    "color": "#2563EB"
  },
  {
    "id": "rep17",
    "name": "Matthew Holland",
    "email": "matthew.holland@company.com",
    "phone": "615-879-1886",
    "startingAddress": {
      "street": "3743 AUTRY CV",
      "city": "BARTLETT",
      "state": "TN",
      "zip": "38135",
      "lat": 35.2045,
      "lng": -89.874
    },
    "color": "#10B981"
  },
  {
    "id": "rep18",
    "name": "Carlos Hernandez",
    "email": "carlos.hernandez@company.com",
    "phone": "214-566-1726",
    "startingAddress": {
      "street": "500 Crawford St #613",
      "city": "Houston",
      "state": "TX",
      "zip": "77002",
      "lat": 29.7604,
      "lng": -95.3698
    },
    "color": "#F59E0B"
  },
  {
    "id": "rep19",
    "name": "Sedrick Augustus",
    "email": "sedrick.augustus@company.com",
    "phone": "225-842-9549",
    "startingAddress": {
      "street": "5607 MACBETH DRIVE APT D",
      "city": "BATON ROUGE",
      "state": "LA",
      "zip": "70817",
      "lat": 30.4515,
      "lng": -91.1871
    },
    "color": "#EF4444"
  },
  {
    "id": "rep20",
    "name": "Aiden Ivy",
    "email": "aiden.ivy@company.com",
    "phone": "843-578-6191",
    "startingAddress": {
      "street": "212 TUSCANY CT",
      "city": "LADSON",
      "state": "SC",
      "zip": "29456",
      "lat": 33.0007,
      "lng": -80.1048
    },
    "color": "#8B5CF6"
  },
  {
    "id": "rep21",
    "name": "Jerrell Doane",
    "email": "jerrell.doane@company.com",
    "phone": "404-830-1644",
    "startingAddress": {
      "street": "240 Amanda Drive",
      "city": "Macon",
      "state": "GA",
      "zip": "31216",
      "lat": 32.8407,
      "lng": -83.6324
    },
    "color": "#EC4899"
  },
  {
    "id": "rep22",
    "name": "Conner Banks",
    "email": "conner.banks@company.com",
    "phone": "205-430-0775",
    "startingAddress": {
      "street": "4288 Ashwood Cove",
      "city": "Vestavia Hills",
      "state": "AL",
      "zip": "35216",
      "lat": 33.4487,
      "lng": -86.7878
    },
    "color": "#06B6D4"
  },
  {
    "id": "rep23",
    "name": "Kedryn McDaniel",
    "email": "kedryn.mcdaniel@company.com",
    "phone": "843-690-5438",
    "startingAddress": {
      "street": "126 Fox Squirrel Rd",
      "city": "Pelion",
      "state": "SC",
      "zip": "29123",
      "lat": 33.7868,
      "lng": -81.2459
    },
    "color": "#84CC16"
  },
  {
    "id": "rep24",
    "name": "Aubrey McDonald",
    "email": "aubrey.mcdonald@company.com",
    "phone": "205-934-9835",
    "startingAddress": {
      "street": "3280 Abbey Dr",
      "city": "Saraland",
      "state": "AL",
      "zip": "36571",
      "lat": 30.8207,
      "lng": -88.0711
    },
    "color": "#F97316"
  },
  {
    "id": "rep25",
    "name": "Sean Peerless",
    "email": "sean.peerless@company.com",
    "phone": "404-762-5880",
    "startingAddress": {
      "street": "104 Clarksville Court",
      "city": "Macon",
      "state": "GA",
      "zip": "31210",
      "lat": 32.8407,
      "lng": -83.6324
    },
    "color": "#6366F1"
  },
  {
    "id": "rep26",
    "name": "Steven Mclendon",
    "email": "steven.mclendon@company.com",
    "phone": "404-631-3334",
    "startingAddress": {
      "street": "171 Stroud Rd",
      "city": "McDonough",
      "state": "GA",
      "zip": "30252",
      "lat": 33.4473,
      "lng": -84.1469
    },
    "color": "#14B8A6"
  },
  {
    "id": "rep27",
    "name": "Robert Mollett",
    "email": "robert.mollett@company.com",
    "phone": "214-436-3123",
    "startingAddress": {
      "street": "6662 Roundrock Rd",
      "city": "Dallas",
      "state": "TX",
      "zip": "75248",
      "lat": 32.7767,
      "lng": -96.797
    },
    "color": "#F43F5E"
  },
  {
    "id": "rep28",
    "name": "John Perez",
    "email": "john.perez@company.com",
    "phone": "214-462-7965",
    "startingAddress": {
      "street": "535 Point Valley",
      "city": "San Antonio",
      "state": "TX",
      "zip": "78253",
      "lat": 29.4241,
      "lng": -98.4936
    },
    "color": "#A855F7"
  },
  {
    "id": "rep29",
    "name": "Matthew Brown",
    "email": "matthew.brown@company.com",
    "phone": "404-740-1172",
    "startingAddress": {
      "street": "600 Holly Drive Lot 33",
      "city": "Albany",
      "state": "GA",
      "zip": "31705",
      "lat": 31.5785,
      "lng": -84.1557
    },
    "color": "#3B82F6"
  },
  {
    "id": "rep30",
    "name": "Richard Smith",
    "email": "richard.smith@company.com",
    "phone": "214-379-7401",
    "startingAddress": {
      "street": "5011 Rollingstone Rd",
      "city": "Richmond",
      "state": "TX",
      "zip": "77407",
      "lat": 29.582,
      "lng": -95.7607
    },
    "color": "#22C55E"
  },
  {
    "id": "rep31",
    "name": "Broderick Williams",
    "email": "broderick.williams@company.com",
    "phone": "615-951-0810",
    "startingAddress": {
      "street": "4841 Quarry Road",
      "city": "Memphis",
      "state": "TN",
      "zip": "38125",
      "lat": 35.1495,
      "lng": -90.049
    },
    "color": "#2563EB"
  },
  {
    "id": "rep32",
    "name": "Jason Smith",
    "email": "jason.smith@company.com",
    "phone": "214-258-1616",
    "startingAddress": {
      "street": "726 Magic Oaks Dr",
      "city": "Spring",
      "state": "TX",
      "zip": "77388",
      "lat": 30.0799,
      "lng": -95.4172
    },
    "color": "#10B981"
  },
  {
    "id": "rep33",
    "name": "Matthew Nichols",
    "email": "matthew.nichols@company.com",
    "phone": "615-202-3573",
    "startingAddress": {
      "street": "587 Bethel Rd",
      "city": "Atoka",
      "state": "TN",
      "zip": "38004",
      "lat": 35.4412,
      "lng": -89.7781
    },
    "color": "#F59E0B"
  },
  {
    "id": "rep34",
    "name": "Everett Anderson",
    "email": "everett.anderson@company.com",
    "phone": "615-957-0728",
    "startingAddress": {
      "street": "5969 Benjestown Rd",
      "city": "Memphis",
      "state": "TN",
      "zip": "38127",
      "lat": 35.1495,
      "lng": -90.049
    },
    "color": "#EF4444"
  },
  {
    "id": "rep35",
    "name": "Cody Camp",
    "email": "cody.camp@company.com",
    "phone": "601-306-3897",
    "startingAddress": {
      "street": "8992 Tahoe Cove",
      "city": "Olive Branch",
      "state": "MS",
      "zip": "38655",
      "lat": 34.9618,
      "lng": -89.8295
    },
    "color": "#8B5CF6"
  },
  {
    "id": "rep36",
    "name": "Stephen Ditto",
    "email": "stephen.ditto@company.com",
    "phone": "601-823-7065",
    "startingAddress": {
      "street": "165 Woodgate Drive",
      "city": "Brandon",
      "state": "MS",
      "zip": "39042",
      "lat": 32.2732,
      "lng": -89.9859
    },
    "color": "#EC4899"
  },
  {
    "id": "rep37",
    "name": "Zeke Watkins",
    "email": "zeke.watkins@company.com",
    "phone": "615-656-5274",
    "startingAddress": {
      "street": "7531 Kental Drive",
      "city": "Memphis",
      "state": "TN",
      "zip": "38119",
      "lat": 35.1495,
      "lng": -90.049
    },
    "color": "#06B6D4"
  },
  {
    "id": "rep38",
    "name": "Austin May",
    "email": "austin.may@company.com",
    "phone": "601-663-7750",
    "startingAddress": {
      "street": "10348 Highway 467",
      "city": "Raymond",
      "state": "MS",
      "zip": "39154",
      "lat": 32.2593,
      "lng": -90.4226
    },
    "color": "#84CC16"
  },
  {
    "id": "rep39",
    "name": "Bryant Presley",
    "email": "bryant.presley@company.com",
    "phone": "601-201-3600",
    "startingAddress": {
      "street": "829 Highway 305 S",
      "city": "Olive Branch",
      "state": "MS",
      "zip": "38654",
      "lat": 34.9618,
      "lng": -89.8295
    },
    "color": "#F97316"
  },
  {
    "id": "rep40",
    "name": "Nathaniel Frazier",
    "email": "nathaniel.frazier@company.com",
    "phone": "601-483-1848",
    "startingAddress": {
      "street": "13522 North Fields Lane",
      "city": "Olive Branch",
      "state": "MS",
      "zip": "38654",
      "lat": 34.9618,
      "lng": -89.8295
    },
    "color": "#6366F1"
  },
  {
    "id": "rep41",
    "name": "Tyler Wright",
    "email": "tyler.wright@company.com",
    "phone": "205-727-2132",
    "startingAddress": {
      "street": "17102 Retreat Ln",
      "city": "Birmingham",
      "state": "AL",
      "zip": "35242",
      "lat": 33.5186,
      "lng": -86.8025
    },
    "color": "#14B8A6"
  },
  {
    "id": "rep42",
    "name": "Hunter Wallace",
    "email": "hunter.wallace@company.com",
    "phone": "205-612-9850",
    "startingAddress": {
      "street": "8351 Lake Hellen Dr N",
      "city": "Theodore",
      "state": "AL",
      "zip": "36582",
      "lat": 30.548,
      "lng": -88.1781
    },
    "color": "#F43F5E"
  },
  {
    "id": "rep43",
    "name": "Garrett Mohr",
    "email": "garrett.mohr@company.com",
    "phone": "843-959-9359",
    "startingAddress": {
      "street": "1167 Albion Loop",
      "city": "North Augusta",
      "state": "SC",
      "zip": "29860",
      "lat": 33.5018,
      "lng": -81.9651
    },
    "color": "#A855F7"
  },
  {
    "id": "rep44",
    "name": "Matthew Bischoff",
    "email": "matthew.bischoff@company.com",
    "phone": "225-340-6483",
    "startingAddress": {
      "street": "64 Begonia Dr",
      "city": "Covington",
      "state": "LA",
      "zip": "70433",
      "lat": 30.4755,
      "lng": -90.1009
    },
    "color": "#3B82F6"
  },
  {
    "id": "rep45",
    "name": "Sean Dignan",
    "email": "sean.dignan@company.com",
    "phone": "214-550-9950",
    "startingAddress": {
      "street": "505 Emerson Dr",
      "city": "Anna",
      "state": "TX",
      "zip": "75409",
      "lat": 33.349,
      "lng": -96.5486
    },
    "color": "#22C55E"
  },
  {
    "id": "rep46",
    "name": "Daniel Josey",
    "email": "daniel.josey@company.com",
    "phone": "843-495-0495",
    "startingAddress": {
      "street": "1089 Albion Loop",
      "city": "North Augusta",
      "state": "SC",
      "zip": "29860",
      "lat": 33.5018,
      "lng": -81.9651
    },
    "color": "#2563EB"
  },
  {
    "id": "rep47",
    "name": "David Nunez",
    "email": "david.nunez@company.com",
    "phone": "214-395-6401",
    "startingAddress": {
      "street": "513 Briarglen Dr",
      "city": "Coppell",
      "state": "TX",
      "zip": "75019",
      "lat": 32.9546,
      "lng": -97.015
    },
    "color": "#10B981"
  },
  {
    "id": "rep48",
    "name": "Nicholas Viles",
    "email": "nicholas.viles@company.com",
    "phone": "615-825-8691",
    "startingAddress": {
      "street": "128 Cabin Creek Drive",
      "city": "Jackson",
      "state": "TN",
      "zip": "38305",
      "lat": 35.6145,
      "lng": -88.8139
    },
    "color": "#F59E0B"
  },
  {
    "id": "rep49",
    "name": "Michael Taylor",
    "email": "michael.taylor@company.com",
    "phone": "205-563-8721",
    "startingAddress": {
      "street": "2920 North Hampton Dr",
      "city": "Tuscaloosa",
      "state": "AL",
      "zip": "35406",
      "lat": 33.2098,
      "lng": -87.5692
    },
    "color": "#EF4444"
  },
  {
    "id": "rep50",
    "name": "Aaron Bailey",
    "email": "aaron.bailey@company.com",
    "phone": "615-585-5445",
    "startingAddress": {
      "street": "8400 Country Club Way H25",
      "city": "Knoxville",
      "state": "TN",
      "zip": "37923",
      "lat": 35.9606,
      "lng": -83.9207
    },
    "color": "#8B5CF6"
  },
  {
    "id": "rep51",
    "name": "Ryan Ponce",
    "email": "ryan.ponce@company.com",
    "phone": "601-558-9656",
    "startingAddress": {
      "street": "9 Wild Cherry Trace",
      "city": "Carriere",
      "state": "MS",
      "zip": "39426",
      "lat": 30.6169,
      "lng": -89.6526
    },
    "color": "#EC4899"
  },
  {
    "id": "rep52",
    "name": "Jacob Tumbleson",
    "email": "jacob.tumbleson@company.com",
    "phone": "615-379-7463",
    "startingAddress": {
      "street": "992 River Landing Drive",
      "city": "Memphis",
      "state": "TN",
      "zip": "38103",
      "lat": 35.1495,
      "lng": -90.049
    },
    "color": "#06B6D4"
  },
  {
    "id": "rep53",
    "name": "Floyd Coffman",
    "email": "floyd.coffman@company.com",
    "phone": "205-861-0735",
    "startingAddress": {
      "street": "1058 Frazier St",
      "city": "Athens",
      "state": "AL",
      "zip": "35611",
      "lat": 34.8029,
      "lng": -86.9717
    },
    "color": "#84CC16"
  },
  {
    "id": "rep54",
    "name": "Jeremy Hodges",
    "email": "jeremy.hodges@company.com",
    "phone": "225-458-7001",
    "startingAddress": {
      "street": "8304 Sophie Ln",
      "city": "Greenwood",
      "state": "LA",
      "zip": "71033",
      "lat": 32.4427,
      "lng": -93.9727
    },
    "color": "#F97316"
  },
  {
    "id": "rep55",
    "name": "Alonza Mays",
    "email": "alonza.mays@company.com",
    "phone": "205-986-6068",
    "startingAddress": {
      "street": "5708 Willowlake Dr",
      "city": "Hoover",
      "state": "AL",
      "zip": "35244",
      "lat": 33.4054,
      "lng": -86.8114
    },
    "color": "#6366F1"
  },
  {
    "id": "rep56",
    "name": "Jimmy Boyd",
    "email": "jimmy.boyd@company.com",
    "phone": "205-256-5311",
    "startingAddress": {
      "street": "839 Wilberforce Ave",
      "city": "Prattville",
      "state": "AL",
      "zip": "36067",
      "lat": 32.464,
      "lng": -86.4597
    },
    "color": "#14B8A6"
  },
  {
    "id": "rep57",
    "name": "Jerald Bales",
    "email": "jerald.bales@company.com",
    "phone": "501-796-0848",
    "startingAddress": {
      "street": "246 BAKERS CREEK RD",
      "city": "RUSSELLVILLE",
      "state": "AR",
      "zip": "72802",
      "lat": 35.2784,
      "lng": -93.1338
    },
    "color": "#F43F5E"
  },
  {
    "id": "rep58",
    "name": "Lane Kersey",
    "email": "lane.kersey@company.com",
    "phone": "501-217-0575",
    "startingAddress": {
      "street": "3546 Sunshine Road",
      "city": "Royal",
      "state": "AR",
      "zip": "71968",
      "lat": 34.512,
      "lng": -93.2932
    },
    "color": "#A855F7"
  },
  {
    "id": "rep59",
    "name": "Alec Smith",
    "email": "alec.smith@company.com",
    "phone": "214-526-5654",
    "startingAddress": {
      "street": "1802 CR 1032",
      "city": "GREENVILLE",
      "state": "TX",
      "zip": "75401",
      "lat": 33.4101,
      "lng": -91.0617
    },
    "color": "#3B82F6"
  },
  {
    "id": "rep60",
    "name": "Christopher Castaldi",
    "email": "christopher.castaldi@company.com",
    "phone": "214-347-9098",
    "startingAddress": {
      "street": "1010 Singleton Blvd Apt 5032",
      "city": "Dallas",
      "state": "TX",
      "zip": "75212",
      "lat": 32.7767,
      "lng": -96.797
    },
    "color": "#22C55E"
  },
  {
    "id": "rep61",
    "name": "Jon Carpenter",
    "email": "jon.carpenter@company.com",
    "phone": "501-965-7540",
    "startingAddress": {
      "street": "4104 SW Broadstone Ave #2",
      "city": "Bentonville",
      "state": "AR",
      "zip": "72712",
      "lat": 36.3729,
      "lng": -94.2088
    },
    "color": "#2563EB"
  },
  {
    "id": "rep62",
    "name": "Landon Parchman",
    "email": "landon.parchman@company.com",
    "phone": "501-679-4442",
    "startingAddress": {
      "street": "333 Farr Shores Dr",
      "city": "Hot Springs",
      "state": "AR",
      "zip": "71913",
      "lat": 34.5037,
      "lng": -93.055
    },
    "color": "#10B981"
  },
  {
    "id": "rep63",
    "name": "Alston Woollen",
    "email": "alston.woollen@company.com",
    "phone": "225-353-5984",
    "startingAddress": {
      "street": "802 Walstonburg Ln",
      "city": "Benton",
      "state": "LA",
      "zip": "71006",
      "lat": 32.6949,
      "lng": -93.7418
    },
    "color": "#F59E0B"
  },
  {
    "id": "rep64",
    "name": "Junaid Baig",
    "email": "junaid.baig@company.com",
    "phone": "205-572-2449",
    "startingAddress": {
      "street": "2405 Blueberry Dr",
      "city": "Leeds",
      "state": "AL",
      "zip": "35094",
      "lat": 33.5482,
      "lng": -86.5444
    },
    "color": "#EF4444"
  },
  {
    "id": "rep65",
    "name": "Kervin Shearon",
    "email": "kervin.shearon@company.com",
    "phone": "214-374-6789",
    "startingAddress": {
      "street": "6706 Queensclub Dr",
      "city": "Houston",
      "state": "TX",
      "zip": "77069",
      "lat": 29.7604,
      "lng": -95.3698
    },
    "color": "#8B5CF6"
  },
  {
    "id": "rep66",
    "name": "Christopher Poland",
    "email": "christopher.poland@company.com",
    "phone": "214-241-8432",
    "startingAddress": {
      "street": "4087 Hogan Dr #1300",
      "city": "Tyler",
      "state": "TX",
      "zip": "75709",
      "lat": 32.3513,
      "lng": -95.3011
    },
    "color": "#EC4899"
  },
  {
    "id": "rep67",
    "name": "Paul Dabe",
    "email": "paul.dabe@company.com",
    "phone": "615-989-2508",
    "startingAddress": {
      "street": "4051 Sequathie Mountain Rd",
      "city": "Sequatchie",
      "state": "TN",
      "zip": "37374",
      "lat": 35.1501,
      "lng": -85.6258
    },
    "color": "#06B6D4"
  },
  {
    "id": "rep68",
    "name": "Jeffrey Jackson",
    "email": "jeffrey.jackson@company.com",
    "phone": "615-399-4088",
    "startingAddress": {
      "street": "417 Fleda Road",
      "city": "Memphis",
      "state": "TN",
      "zip": "38120",
      "lat": 35.1495,
      "lng": -90.049
    },
    "color": "#84CC16"
  },
  {
    "id": "rep69",
    "name": "Corey Barno",
    "email": "corey.barno@company.com",
    "phone": "404-501-6012",
    "startingAddress": {
      "street": "1003 Marquis Way",
      "city": "Morrow",
      "state": "GA",
      "zip": "30260",
      "lat": 33.5832,
      "lng": -84.3394
    },
    "color": "#F97316"
  },
  {
    "id": "rep70",
    "name": "Adam Joyner",
    "email": "adam.joyner@company.com",
    "phone": "615-518-3588",
    "startingAddress": {
      "street": "7099 Alderwood Dr",
      "city": "Millington",
      "state": "TN",
      "zip": "38053",
      "lat": 35.3415,
      "lng": -89.897
    },
    "color": "#6366F1"
  },
  {
    "id": "rep71",
    "name": "Reginald Curry",
    "email": "reginald.curry@company.com",
    "phone": "225-702-1861",
    "startingAddress": {
      "street": "110 Hogan Drive",
      "city": "Lafayette",
      "state": "LA",
      "zip": "70506",
      "lat": 30.2241,
      "lng": -92.0198
    },
    "color": "#14B8A6"
  },
  {
    "id": "rep72",
    "name": "Rhett Roberts",
    "email": "rhett.roberts@company.com",
    "phone": "404-238-7378",
    "startingAddress": {
      "street": "144 Timberland Drive",
      "city": "Canton",
      "state": "GA",
      "zip": "30114",
      "lat": 34.2368,
      "lng": -84.4908
    },
    "color": "#F43F5E"
  },
  {
    "id": "rep73",
    "name": "James Carpenter",
    "email": "james.carpenter@company.com",
    "phone": "405-704-2703",
    "startingAddress": {
      "street": "10014 E 106th Ct N",
      "city": "Owasso",
      "state": "OK",
      "zip": "74055",
      "lat": 36.2695,
      "lng": -95.8547
    },
    "color": "#A855F7"
  },
  {
    "id": "rep74",
    "name": "David McCune",
    "email": "david.mccune@company.com",
    "phone": "214-924-3964",
    "startingAddress": {
      "street": "545 FM 1488",
      "city": "Conroe",
      "state": "TX",
      "zip": "77384",
      "lat": 30.3119,
      "lng": -95.4561
    },
    "color": "#3B82F6"
  },
  {
    "id": "rep75",
    "name": "Donald Price",
    "email": "donald.price@company.com",
    "phone": "615-614-2406",
    "startingAddress": {
      "street": "8331 Hamilton Oaks Drive",
      "city": "Chattanooga",
      "state": "TN",
      "zip": "37421",
      "lat": 35.0456,
      "lng": -85.3097
    },
    "color": "#22C55E"
  },
  {
    "id": "rep76",
    "name": "Jonathan Cooper",
    "email": "jonathan.cooper@company.com",
    "phone": "618-236-6240",
    "startingAddress": {
      "street": "215 E Buena Vista St",
      "city": "Chester",
      "state": "IL",
      "zip": "62233",
      "lat": 37.9137,
      "lng": -89.8223
    },
    "color": "#2563EB"
  },
  {
    "id": "rep77",
    "name": "Charity Washington",
    "email": "charity.washington@company.com",
    "phone": "601-634-8688",
    "startingAddress": {
      "street": "376 Hanley Ct",
      "city": "Brandon",
      "state": "MS",
      "zip": "39047",
      "lat": 32.2732,
      "lng": -89.9859
    },
    "color": "#10B981"
  },
  {
    "id": "rep78",
    "name": "Mark Amagliani",
    "email": "mark.amagliani@company.com",
    "phone": "615-578-1595",
    "startingAddress": {
      "street": "1840 Stillwind Lane",
      "city": "Collierville",
      "state": "TN",
      "zip": "38017",
      "lat": 35.042,
      "lng": -89.6645
    },
    "color": "#F59E0B"
  },
  {
    "id": "rep79",
    "name": "Christian Cooper",
    "email": "christian.cooper@company.com",
    "phone": "615-560-4856",
    "startingAddress": {
      "street": "705 Gresham Rd",
      "city": "Knoxville",
      "state": "TN",
      "zip": "37918",
      "lat": 35.9606,
      "lng": -83.9207
    },
    "color": "#EF4444"
  },
  {
    "id": "rep80",
    "name": "Ross Mietzel",
    "email": "ross.mietzel@company.com",
    "phone": "615-284-0744",
    "startingAddress": {
      "street": "381 Owl Dr",
      "city": "Lebanon",
      "state": "TN",
      "zip": "37087",
      "lat": 36.2081,
      "lng": -86.2911
    },
    "color": "#8B5CF6"
  },
  {
    "id": "rep81",
    "name": "John Harrell",
    "email": "john.harrell@company.com",
    "phone": "555-783-5356",
    "startingAddress": {
      "street": "1806 Oglethorpe blvd",
      "city": "Albany",
      "state": "Ga",
      "zip": "31605",
      "lat": 31.5785,
      "lng": -84.1557
    },
    "color": "#EC4899"
  },
  {
    "id": "rep82",
    "name": "Eugene Pope",
    "email": "eugene.pope@company.com",
    "phone": "404-373-0261",
    "startingAddress": {
      "street": "6075 Joybrook Rd",
      "city": "Johns Creek",
      "state": "GA",
      "zip": "30097",
      "lat": 33.688993,
      "lng": -84.321156
    },
    "color": "#06B6D4"
  },
  {
    "id": "rep83",
    "name": "David Miller",
    "email": "david.miller@company.com",
    "phone": "555-589-5671",
    "startingAddress": {
      "street": "North chase blvd",
      "city": "Birmingham",
      "state": "Al",
      "zip": "36110",
      "lat": 33.5186,
      "lng": -86.8025
    },
    "color": "#84CC16"
  },
  {
    "id": "rep84",
    "name": "Jack Stewart",
    "email": "jack.stewart@company.com",
    "phone": "856-275-9497",
    "startingAddress": {
      "street": "63 Longwood Dr",
      "city": "Sicklerville",
      "state": "NJ",
      "zip": "08081",
      "lat": 39.7173,
      "lng": -74.9693
    },
    "color": "#F97316"
  },
  {
    "id": "rep85",
    "name": "Anthony Dixon",
    "email": "anthony.dixon@company.com",
    "phone": "601-216-5172",
    "startingAddress": {
      "street": "129 Brickerton Street",
      "city": "Columbus",
      "state": "MS",
      "zip": "39701",
      "lat": 33.495,
      "lng": -88.4274
    },
    "color": "#6366F1"
  },
  {
    "id": "rep86",
    "name": "Bobby Bright",
    "email": "bobby.bright@company.com",
    "phone": "214-817-6641",
    "startingAddress": {
      "street": "309 W Heritage Drive",
      "city": "Tyler",
      "state": "TX",
      "zip": "75703",
      "lat": 32.3513,
      "lng": -95.3011
    },
    "color": "#14B8A6"
  },
  {
    "id": "rep87",
    "name": "Carter West",
    "email": "carter.west@company.com",
    "phone": "314-446-8197",
    "startingAddress": {
      "street": "1030 Woodecrest Terrace Dr.",
      "city": "St. Louis",
      "state": "MO",
      "zip": "63141",
      "lat": 38.627,
      "lng": -90.1994
    },
    "color": "#F43F5E"
  },
  {
    "id": "rep88",
    "name": "Jesse Venable",
    "email": "jesse.venable@company.com",
    "phone": "405-928-9535",
    "startingAddress": {
      "street": "13800 Quail Springs Parkway",
      "city": "Oklahoma City",
      "state": "OK",
      "zip": "73134",
      "lat": 35.4676,
      "lng": -97.5164
    },
    "color": "#A855F7"
  },
  {
    "id": "rep89",
    "name": "Justin Long",
    "email": "justin.long@company.com",
    "phone": "601-399-8876",
    "startingAddress": {
      "street": "6863 Hospitality Lane",
      "city": "Southaven",
      "state": "MS",
      "zip": "38671",
      "lat": 34.991,
      "lng": -90.0026
    },
    "color": "#3B82F6"
  },
  {
    "id": "rep90",
    "name": "Kirby Dixon",
    "email": "kirby.dixon@company.com",
    "phone": "601-523-4910",
    "startingAddress": {
      "street": "100 Riverwind Drive East",
      "city": "Pearl",
      "state": "MS",
      "zip": "39208",
      "lat": 32.2746,
      "lng": -90.132
    },
    "color": "#22C55E"
  },
  {
    "id": "rep91",
    "name": "Larry Heihn",
    "email": "larry.heihn@company.com",
    "phone": "601-649-2096",
    "startingAddress": {
      "street": "6671 Towne Center Loop",
      "city": "Southaven",
      "state": "MS",
      "zip": "38671",
      "lat": 34.991,
      "lng": -90.0026
    },
    "color": "#2563EB"
  },
  {
    "id": "rep92",
    "name": "Luis Vasquez",
    "email": "luis.vasquez@company.com",
    "phone": "601-664-6400",
    "startingAddress": {
      "street": "3090 US-82",
      "city": "Greenville",
      "state": "MS",
      "zip": "38701",
      "lat": 33.4101,
      "lng": -91.0617
    },
    "color": "#10B981"
  },
  {
    "id": "rep93",
    "name": "Richard Johnson",
    "email": "richard.johnson@company.com",
    "phone": "601-671-7005",
    "startingAddress": {
      "street": "110 Bass Pro Dr",
      "city": "Pearl",
      "state": "MS",
      "zip": "39208",
      "lat": 32.2746,
      "lng": -90.132
    },
    "color": "#F59E0B"
  },
  {
    "id": "rep94",
    "name": "Slade Porter",
    "email": "slade.porter@company.com",
    "phone": "601-547-4140",
    "startingAddress": {
      "street": "360 Gilchrist Dr.",
      "city": "Pearl",
      "state": "MS",
      "zip": "39208",
      "lat": 32.2746,
      "lng": -90.132
    },
    "color": "#EF4444"
  },
  {
    "id": "rep95",
    "name": "Timothy Wharton",
    "email": "timothy.wharton@company.com",
    "phone": "225-747-5566",
    "startingAddress": {
      "street": "201 Lake St.",
      "city": "Shreveport",
      "state": "LA",
      "zip": "71101",
      "lat": 32.5252,
      "lng": -93.7502
    },
    "color": "#8B5CF6"
  },
  {
    "id": "rep96",
    "name": "Trent Jones",
    "email": "trent.jones@company.com",
    "phone": "601-240-3094",
    "startingAddress": {
      "street": "6863 Hospitality Lane",
      "city": "Southaven",
      "state": "MS",
      "zip": "38671",
      "lat": 34.991,
      "lng": -90.0026
    },
    "color": "#EC4899"
  },
  {
    "id": "rep97",
    "name": "Zach Ross",
    "email": "zach.ross@company.com",
    "phone": "601-665-1424",
    "startingAddress": {
      "street": "6863 Hospitality Lane",
      "city": "Southaven",
      "state": "MS",
      "zip": "38671",
      "lat": 34.991,
      "lng": -90.0026
    },
    "color": "#06B6D4"
  },
  {
    "id": "rep98",
    "name": "Joshua Huffman",
    "email": "joshua.huffman@company.com",
    "phone": "314-453-1435",
    "startingAddress": {
      "street": "4101 N Corrington Ave",
      "city": "Kansas City",
      "state": "MO",
      "zip": "64117",
      "lat": 39.0997,
      "lng": -94.5786
    },
    "color": "#84CC16"
  }
]