[
  {
    "id": "apt-1762470515197-0",
    "repId": "rep2",
    "date": "2025-11-06",
    "timeSlot": "10am",
    "customerName": "Ryan Mitchell",
    "customerPhone": "512-714-6922",
    "customerEmail": "ryan.mitchell@email.com",
    "address": {
      "street": "1156 Elm St",
      "city": "MCKINNEY",
      "state": "TX",
      "zip": "75071",
      "lat": 32.68114344722508,
      "lng": -96.9387446330103
    },
    "status": "scheduled",
    "createdAt": "2025-11-03T06:20:30.855Z"
  },
  {
    "id": "apt-1762470515198-1",
    "repId": "rep2",
    "date": "2025-11-06",
    "timeSlot": "2pm",
    "customerName": "Mike Davis",
    "customerPhone": "430-387-3909",
    "customerEmail": "mike.davis@email.com",
    "address": {
      "street": "4568 Cedar Ln",
      "city": "MCKINNEY",
      "state": "TX",
      "zip": "75071",
      "lat": 32.675130265625945,
      "lng": -96.96180761988794
    },
    "status": "scheduled",
    "createdAt": "2025-10-09T19:21:08.256Z"
  },
  {
    "id": "apt-1762470515198-2",
    "repId": "rep3",
    "date": "2025-11-06",
    "timeSlot": "10am",
    "customerName": "Matthew Hall",
    "customerPhone": "678-536-4618",
    "customerEmail": "matthew.hall@email.com",
    "address": {
      "street": "2402 Elm St",
      "city": "Douglasville",
      "state": "GA",
      "zip": "30135",
      "lat": 33.956630230439856,
      "lng": -84.28962976735664
    },
    "status": "scheduled",
    "createdAt": "2025-10-16T23:51:53.472Z"
  },
  {
    "id": "apt-1762470515198-3",
    "repId": "rep4",
    "date": "2025-11-06",
    "timeSlot": "10am",
    "customerName": "Michael Thompson",
    "customerPhone": "432-271-7037",
    "customerEmail": "michael.thompson@email.com",
    "address": {
      "street": "5642 Oak Ave",
      "city": "COPPELL",
      "state": "TX",
      "zip": "75019",
      "lat": 32.734001084773226,
      "lng": -96.7161652749041
    },
    "status": "scheduled",
    "createdAt": "2025-11-03T00:37:26.690Z"
  },
  {
    "id": "apt-1762470515198-4",
    "repId": "rep5",
    "date": "2025-11-06",
    "timeSlot": "7pm",
    "customerName": "Brandon White",
    "customerPhone": "870-906-7349",
    "customerEmail": "brandon.white@email.com",
    "address": {
      "street": "9236 Oak Ave",
      "city": "RUSSELLVILLE",
      "state": "AR",
      "zip": "72802",
      "lat": 34.991923826890485,
      "lng": -92.2671372727755
    },
    "status": "scheduled",
    "createdAt": "2025-10-27T10:52:29.840Z"
  },
  {
    "id": "apt-1762470515198-5",
    "repId": "rep6",
    "date": "2025-11-06",
    "timeSlot": "10am",
    "customerName": "Nicole Green",
    "customerPhone": "601-675-6437",
    "customerEmail": "nicole.green@email.com",
    "address": {
      "street": "880 Elm St",
      "city": "HORN LAKE",
      "state": "MS",
      "zip": "38637",
      "lat": 32.06328977893394,
      "lng": -90.11747161014567
    },
    "status": "scheduled",
    "createdAt": "2025-10-15T21:27:36.625Z"
  },
  {
    "id": "apt-1762470515198-6",
    "repId": "rep7",
    "date": "2025-11-06",
    "timeSlot": "7pm",
    "customerName": "Michelle Walker",
    "customerPhone": "251-715-7353",
    "customerEmail": "michelle.walker@email.com",
    "address": {
      "street": "1066 Maple Dr",
      "city": "Alabaster",
      "state": "AL",
      "zip": "35114",
      "lat": 33.26670573266126,
      "lng": -86.59767572987347
    },
    "status": "scheduled",
    "createdAt": "2025-10-09T14:43:07.954Z"
  },
  {
    "id": "apt-1762470515198-7",
    "repId": "rep8",
    "date": "2025-11-06",
    "timeSlot": "10am",
    "customerName": "Brian Wright",
    "customerPhone": "706-845-6628",
    "customerEmail": "brian.wright@email.com",
    "address": {
      "street": "5825 Elm St",
      "city": "FAYETTEVILLE",
      "state": "GA",
      "zip": "30214",
      "lat": 33.8761528187239,
      "lng": -84.55461925352955
    },
    "status": "scheduled",
    "createdAt": "2025-10-18T00:51:35.171Z"
  },
  {
    "id": "apt-1762470515198-8",
    "repId": "rep8",
    "date": "2025-11-06",
    "timeSlot": "7pm",
    "customerName": "Samantha Lee",
    "customerPhone": "470-799-4826",
    "customerEmail": "samantha.lee@email.com",
    "address": {
      "street": "6973 Maple Dr",
      "city": "FAYETTEVILLE",
      "state": "GA",
      "zip": "30214",
      "lat": 33.89960132768848,
      "lng": -84.55397171242979
    },
    "status": "scheduled",
    "createdAt": "2025-10-19T05:31:15.263Z"
  },
  {
    "id": "apt-1762470515198-9",
    "repId": "rep9",
    "date": "2025-11-06",
    "timeSlot": "7pm",
    "customerName": "Nicole Green",
    "customerPhone": "912-293-9707",
    "customerEmail": "nicole.green@email.com",
    "address": {
      "street": "7704 Cedar Ln",
      "city": "SOUTH FULTON",
      "state": "GA",
      "zip": "30349",
      "lat": 34.02235375802815,
      "lng": -84.1421022166464
    },
    "status": "scheduled",
    "createdAt": "2025-10-08T21:36:09.627Z"
  },
  {
    "id": "apt-1762470515198-10",
    "repId": "rep12",
    "date": "2025-11-06",
    "timeSlot": "2pm",
    "customerName": "Emily White",
    "customerPhone": "205-711-5130",
    "customerEmail": "emily.white@email.com",
    "address": {
      "street": "7032 Oak Ave",
      "city": "Talladega",
      "state": "AL",
      "zip": "35160",
      "lat": 33.34064508464879,
      "lng": -86.59812858752974
    },
    "status": "scheduled",
    "createdAt": "2025-10-30T13:25:08.969Z"
  },
  {
    "id": "apt-1762470515198-11",
    "repId": "rep13",
    "date": "2025-11-06",
    "timeSlot": "2pm",
    "customerName": "Samantha Lee",
    "customerPhone": "984-711-9690",
    "customerEmail": "samantha.lee@email.com",
    "address": {
      "street": "3968 Cedar Ln",
      "city": "GRAHAM",
      "state": "NC",
      "zip": "27253",
      "lat": 35.28596387257331,
      "lng": -80.65323603950401
    },
    "status": "scheduled",
    "createdAt": "2025-10-12T01:30:51.803Z"
  },
  {
    "id": "apt-1762470515198-12",
    "repId": "rep13",
    "date": "2025-11-06",
    "timeSlot": "7pm",
    "customerName": "James Anderson",
    "customerPhone": "910-949-5035",
    "customerEmail": "james.anderson@email.com",
    "address": {
      "street": "6622 Park Blvd",
      "city": "GRAHAM",
      "state": "NC",
      "zip": "27253",
      "lat": 35.31797874916056,
      "lng": -80.66879152910344
    },
    "status": "scheduled",
    "createdAt": "2025-10-11T20:20:23.951Z"
  },
  {
    "id": "apt-1762470515198-13",
    "repId": "rep17",
    "date": "2025-11-06",
    "timeSlot": "10am",
    "customerName": "Kimberly Crump",
    "customerPhone": "615-294-0875",
    "customerEmail": "kimberly.crump@email.com",
    "address": {
      "street": "4335 Park Blvd",
      "city": "BARTLETT",
      "state": "TN",
      "zip": "38135",
      "lat": 36.28084485268123,
      "lng": -86.81206145361358
    },
    "status": "scheduled",
    "createdAt": "2025-10-30T17:51:20.660Z"
  },
  {
    "id": "apt-1762470515198-14",
    "repId": "rep17",
    "date": "2025-11-06",
    "timeSlot": "7pm",
    "customerName": "Jessica Moore",
    "customerPhone": "865-698-2387",
    "customerEmail": "jessica.moore@email.com",
    "address": {
      "street": "9911 Cedar Ln",
      "city": "BARTLETT",
      "state": "TN",
      "zip": "38135",
      "lat": 36.314164281254705,
      "lng": -86.79415685025201
    },
    "status": "scheduled",
    "createdAt": "2025-10-31T07:54:19.189Z"
  },
  {
    "id": "apt-1762470515198-15",
    "repId": "rep18",
    "date": "2025-11-06",
    "timeSlot": "2pm",
    "customerName": "Ashley Clark",
    "customerPhone": "430-511-7434",
    "customerEmail": "ashley.clark@email.com",
    "address": {
      "street": "8133 Elm St",
      "city": "Houston",
      "state": "TX",
      "zip": "77002",
      "lat": 32.97334155551793,
      "lng": -96.85728450337162
    },
    "status": "scheduled",
    "createdAt": "2025-10-11T03:20:44.291Z"
  },
  {
    "id": "apt-1762470515198-16",
    "repId": "rep20",
    "date": "2025-11-06",
    "timeSlot": "10am",
    "customerName": "Robert Taylor",
    "customerPhone": "803-599-2073",
    "customerEmail": "robert.taylor@email.com",
    "address": {
      "street": "2305 Pine St",
      "city": "LADSON",
      "state": "SC",
      "zip": "29456",
      "lat": 33.86744376586846,
      "lng": -81.05993990804699
    },
    "status": "scheduled",
    "createdAt": "2025-10-19T02:15:37.468Z"
  },
  {
    "id": "apt-1762470515198-17",
    "repId": "rep20",
    "date": "2025-11-06",
    "timeSlot": "2pm",
    "customerName": "Ryan Mitchell",
    "customerPhone": "864-273-8644",
    "customerEmail": "ryan.mitchell@email.com",
    "address": {
      "street": "673 Oak Ave",
      "city": "LADSON",
      "state": "SC",
      "zip": "29456",
      "lat": 33.8870975875565,
      "lng": -81.05682076894003
    },
    "status": "scheduled",
    "createdAt": "2025-10-13T07:06:37.415Z"
  },
  {
    "id": "apt-1762470515198-18",
    "repId": "rep23",
    "date": "2025-11-06",
    "timeSlot": "10am",
    "customerName": "Melissa Scott",
    "customerPhone": "854-535-2433",
    "customerEmail": "melissa.scott@email.com",
    "address": {
      "street": "1462 Main St",
      "city": "Pelion",
      "state": "SC",
      "zip": "29123",
      "lat": 34.15815718128446,
      "lng": -81.03542651163033
    },
    "status": "scheduled",
    "createdAt": "2025-10-13T13:38:05.813Z"
  },
  {
    "id": "apt-1762470515198-19",
    "repId": "rep23",
    "date": "2025-11-06",
    "timeSlot": "2pm",
    "customerName": "Jennifer Martinez",
    "customerPhone": "803-966-4475",
    "customerEmail": "jennifer.martinez@email.com",
    "address": {
      "street": "4955 Elm St",
      "city": "Pelion",
      "state": "SC",
      "zip": "29123",
      "lat": 34.13597350404578,
      "lng": -81.08302288883819
    },
    "status": "scheduled",
    "createdAt": "2025-10-23T07:56:17.148Z"
  },
  {
    "id": "apt-1762470515198-20",
    "repId": "rep24",
    "date": "2025-11-06",
    "timeSlot": "10am",
    "customerName": "Angela Martinez",
    "customerPhone": "334-900-7999",
    "customerEmail": "angela.martinez@email.com",
    "address": {
      "street": "7078 Cedar Ln",
      "city": "Saraland",
      "state": "AL",
      "zip": "36571",
      "lat": 33.58492016605298,
      "lng": -86.60562117399706
    },
    "status": "scheduled",
    "createdAt": "2025-10-29T01:58:01.434Z"
  },
  {
    "id": "apt-1762470515198-21",
    "repId": "rep24",
    "date": "2025-11-06",
    "timeSlot": "7pm",
    "customerName": "Angela Martinez",
    "customerPhone": "205-989-4975",
    "customerEmail": "angela.martinez@email.com",
    "address": {
      "street": "9566 Elm St",
      "city": "Saraland",
      "state": "AL",
      "zip": "36571",
      "lat": 33.62000722874443,
      "lng": -86.59373224945438
    },
    "status": "scheduled",
    "createdAt": "2025-10-31T07:30:51.390Z"
  },
  {
    "id": "apt-1762470515198-22",
    "repId": "rep25",
    "date": "2025-11-06",
    "timeSlot": "7pm",
    "customerName": "David Lee",
    "customerPhone": "762-740-0363",
    "customerEmail": "david.lee@email.com",
    "address": {
      "street": "2004 Elm St",
      "city": "Macon",
      "state": "GA",
      "zip": "31210",
      "lat": 33.71686419926988,
      "lng": -84.38162745279963
    },
    "status": "scheduled",
    "createdAt": "2025-10-27T06:58:31.487Z"
  },
  {
    "id": "apt-1762470515198-23",
    "repId": "rep26",
    "date": "2025-11-06",
    "timeSlot": "2pm",
    "customerName": "Christopher Harris",
    "customerPhone": "229-297-6812",
    "customerEmail": "christopher.harris@email.com",
    "address": {
      "street": "4747 Main St",
      "city": "McDonough",
      "state": "GA",
      "zip": "30252",
      "lat": 33.75792629329094,
      "lng": -84.40614881942584
    },
    "status": "scheduled",
    "createdAt": "2025-10-26T01:01:30.545Z"
  },
  {
    "id": "apt-1762470515198-24",
    "repId": "rep26",
    "date": "2025-11-06",
    "timeSlot": "7pm",
    "customerName": "Brian Wright",
    "customerPhone": "229-370-2296",
    "customerEmail": "brian.wright@email.com",
    "address": {
      "street": "8083 Elm St",
      "city": "McDonough",
      "state": "GA",
      "zip": "30252",
      "lat": 33.813637116450515,
      "lng": -84.38900048838467
    },
    "status": "scheduled",
    "createdAt": "2025-10-09T15:29:07.214Z"
  },
  {
    "id": "apt-1762470515198-25",
    "repId": "rep27",
    "date": "2025-11-06",
    "timeSlot": "2pm",
    "customerName": "Sarah Johnson",
    "customerPhone": "903-986-6717",
    "customerEmail": "sarah.johnson@email.com",
    "address": {
      "street": "149 Main St",
      "city": "Dallas",
      "state": "TX",
      "zip": "75248",
      "lat": 32.560511647874755,
      "lng": -96.79426291468246
    },
    "status": "scheduled",
    "createdAt": "2025-10-20T11:48:20.572Z"
  },
  {
    "id": "apt-1762470515198-26",
    "repId": "rep28",
    "date": "2025-11-06",
    "timeSlot": "10am",
    "customerName": "Kimberly Crump",
    "customerPhone": "469-918-8558",
    "customerEmail": "kimberly.crump@email.com",
    "address": {
      "street": "5360 Main St",
      "city": "San Antonio",
      "state": "TX",
      "zip": "78253",
      "lat": 33.051760412177394,
      "lng": -96.51275136506624
    },
    "status": "scheduled",
    "createdAt": "2025-10-21T04:33:05.564Z"
  },
  {
    "id": "apt-1762470515198-27",
    "repId": "rep29",
    "date": "2025-11-06",
    "timeSlot": "7pm",
    "customerName": "Angela Martinez",
    "customerPhone": "678-576-5923",
    "customerEmail": "angela.martinez@email.com",
    "address": {
      "street": "9903 Maple Dr",
      "city": "Albany",
      "state": "GA",
      "zip": "31705",
      "lat": 33.63162940678967,
      "lng": -84.23872707014768
    },
    "status": "scheduled",
    "createdAt": "2025-11-06T20:34:46.908Z"
  },
  {
    "id": "apt-1762470515198-28",
    "repId": "rep31",
    "date": "2025-11-06",
    "timeSlot": "10am",
    "customerName": "Joshua Young",
    "customerPhone": "865-683-1541",
    "customerEmail": "joshua.young@email.com",
    "address": {
      "street": "6260 Park Blvd",
      "city": "Memphis",
      "state": "TN",
      "zip": "38125",
      "lat": 35.96200485166801,
      "lng": -86.83166924634743
    },
    "status": "scheduled",
    "createdAt": "2025-10-14T22:25:09.685Z"
  },
  {
    "id": "apt-1762470515198-29",
    "repId": "rep31",
    "date": "2025-11-06",
    "timeSlot": "2pm",
    "customerName": "James Anderson",
    "customerPhone": "629-751-5955",
    "customerEmail": "james.anderson@email.com",
    "address": {
      "street": "156 Park Blvd",
      "city": "Memphis",
      "state": "TN",
      "zip": "38125",
      "lat": 35.98905166546908,
      "lng": -86.92036195276977
    },
    "status": "scheduled",
    "createdAt": "2025-10-15T17:17:32.022Z"
  },
  {
    "id": "apt-1762470515198-30",
    "repId": "rep32",
    "date": "2025-11-06",
    "timeSlot": "10am",
    "customerName": "Samantha Lee",
    "customerPhone": "940-836-9070",
    "customerEmail": "samantha.lee@email.com",
    "address": {
      "street": "423 Park Blvd",
      "city": "Spring",
      "state": "TX",
      "zip": "77388",
      "lat": 32.66180755078434,
      "lng": -96.89411017343089
    },
    "status": "scheduled",
    "createdAt": "2025-10-23T17:41:23.604Z"
  },
  {
    "id": "apt-1762470515198-31",
    "repId": "rep33",
    "date": "2025-11-06",
    "timeSlot": "7pm",
    "customerName": "Lisa Brown",
    "customerPhone": "423-876-3833",
    "customerEmail": "lisa.brown@email.com",
    "address": {
      "street": "3524 Maple Dr",
      "city": "Atoka",
      "state": "TN",
      "zip": "38004",
      "lat": 36.203950424269074,
      "lng": -87.05038038121764
    },
    "status": "scheduled",
    "createdAt": "2025-11-05T20:01:27.543Z"
  },
  {
    "id": "apt-1762470515198-32",
    "repId": "rep34",
    "date": "2025-11-06",
    "timeSlot": "10am",
    "customerName": "Christopher Harris",
    "customerPhone": "629-232-2440",
    "customerEmail": "christopher.harris@email.com",
    "address": {
      "street": "9772 Main St",
      "city": "Memphis",
      "state": "TN",
      "zip": "38127",
      "lat": 36.204514983246064,
      "lng": -86.96031288234866
    },
    "status": "scheduled",
    "createdAt": "2025-10-23T22:11:43.469Z"
  },
  {
    "id": "apt-1762470515198-33",
    "repId": "rep34",
    "date": "2025-11-06",
    "timeSlot": "7pm",
    "customerName": "David Lee",
    "customerPhone": "615-276-9335",
    "customerEmail": "david.lee@email.com",
    "address": {
      "street": "298 Cedar Ln",
      "city": "Memphis",
      "state": "TN",
      "zip": "38127",
      "lat": 36.193304907432804,
      "lng": -86.90933868182192
    },
    "status": "scheduled",
    "createdAt": "2025-10-10T15:22:35.909Z"
  },
  {
    "id": "apt-1762470515198-34",
    "repId": "rep35",
    "date": "2025-11-06",
    "timeSlot": "2pm",
    "customerName": "Sarah Johnson",
    "customerPhone": "228-294-2320",
    "customerEmail": "sarah.johnson@email.com",
    "address": {
      "street": "1314 Elm St",
      "city": "Olive Branch",
      "state": "MS",
      "zip": "38655",
      "lat": 32.4851085060826,
      "lng": -90.09530022161705
    },
    "status": "scheduled",
    "createdAt": "2025-11-02T05:35:05.329Z"
  },
  {
    "id": "apt-1762470515198-35",
    "repId": "rep37",
    "date": "2025-11-06",
    "timeSlot": "7pm",
    "customerName": "Brandon White",
    "customerPhone": "423-843-1666",
    "customerEmail": "brandon.white@email.com",
    "address": {
      "street": "9771 Park Blvd",
      "city": "Memphis",
      "state": "TN",
      "zip": "38119",
      "lat": 36.34387452208575,
      "lng": -86.78060111705608
    },
    "status": "scheduled",
    "createdAt": "2025-11-05T20:33:56.008Z"
  },
  {
    "id": "apt-1762470515198-36",
    "repId": "rep38",
    "date": "2025-11-06",
    "timeSlot": "2pm",
    "customerName": "Michael Thompson",
    "customerPhone": "662-448-2729",
    "customerEmail": "michael.thompson@email.com",
    "address": {
      "street": "2176 Park Blvd",
      "city": "Raymond",
      "state": "MS",
      "zip": "39154",
      "lat": 32.38760154862706,
      "lng": -90.2224109294902
    },
    "status": "scheduled",
    "createdAt": "2025-11-05T12:36:42.140Z"
  },
  {
    "id": "apt-1762470515198-37",
    "repId": "rep39",
    "date": "2025-11-06",
    "timeSlot": "10am",
    "customerName": "Jennifer Martinez",
    "customerPhone": "769-303-0871",
    "customerEmail": "jennifer.martinez@email.com",
    "address": {
      "street": "6378 Pine St",
      "city": "Olive Branch",
      "state": "MS",
      "zip": "38654",
      "lat": 32.1511298187372,
      "lng": -89.9527223199598
    },
    "status": "scheduled",
    "createdAt": "2025-10-19T19:10:16.702Z"
  },
  {
    "id": "apt-1762470515198-38",
    "repId": "rep40",
    "date": "2025-11-06",
    "timeSlot": "10am",
    "customerName": "Michael Thompson",
    "customerPhone": "662-366-3423",
    "customerEmail": "michael.thompson@email.com",
    "address": {
      "street": "6366 Cedar Ln",
      "city": "Olive Branch",
      "state": "MS",
      "zip": "38654",
      "lat": 32.1905419228485,
      "lng": -90.34710172433606
    },
    "status": "scheduled",
    "createdAt": "2025-10-24T16:28:37.572Z"
  },
  {
    "id": "apt-1762470515198-39",
    "repId": "rep40",
    "date": "2025-11-06",
    "timeSlot": "7pm",
    "customerName": "Stephanie King",
    "customerPhone": "662-498-0066",
    "customerEmail": "stephanie.king@email.com",
    "address": {
      "street": "7102 Elm St",
      "city": "Olive Branch",
      "state": "MS",
      "zip": "38654",
      "lat": 32.25265127890091,
      "lng": -90.3967940222594
    },
    "status": "scheduled",
    "createdAt": "2025-10-21T11:58:27.640Z"
  },
  {
    "id": "apt-1762470515198-40",
    "repId": "rep41",
    "date": "2025-11-06",
    "timeSlot": "10am",
    "customerName": "Nicole Green",
    "customerPhone": "256-781-7787",
    "customerEmail": "nicole.green@email.com",
    "address": {
      "street": "2577 Pine St",
      "city": "Birmingham",
      "state": "AL",
      "zip": "35242",
      "lat": 33.59516638035266,
      "lng": -86.60303874713551
    },
    "status": "scheduled",
    "createdAt": "2025-10-29T10:50:20.771Z"
  },
  {
    "id": "apt-1762470515198-41",
    "repId": "rep41",
    "date": "2025-11-06",
    "timeSlot": "2pm",
    "customerName": "Ryan Mitchell",
    "customerPhone": "251-653-5996",
    "customerEmail": "ryan.mitchell@email.com",
    "address": {
      "street": "2164 Pine St",
      "city": "Birmingham",
      "state": "AL",
      "zip": "35242",
      "lat": 33.58571399084447,
      "lng": -86.58783458240273
    },
    "status": "scheduled",
    "createdAt": "2025-10-21T17:16:57.871Z"
  },
  {
    "id": "apt-1762470515198-42",
    "repId": "rep41",
    "date": "2025-11-06",
    "timeSlot": "7pm",
    "customerName": "Lauren Allen",
    "customerPhone": "256-485-8445",
    "customerEmail": "lauren.allen@email.com",
    "address": {
      "street": "6062 Pine St",
      "city": "Birmingham",
      "state": "AL",
      "zip": "35242",
      "lat": 33.57617184100365,
      "lng": -86.56671280684793
    },
    "status": "scheduled",
    "createdAt": "2025-10-17T19:25:08.773Z"
  },
  {
    "id": "apt-1762470515198-43",
    "repId": "rep42",
    "date": "2025-11-06",
    "timeSlot": "2pm",
    "customerName": "Ryan Mitchell",
    "customerPhone": "334-967-3107",
    "customerEmail": "ryan.mitchell@email.com",
    "address": {
      "street": "1157 Maple Dr",
      "city": "Theodore",
      "state": "AL",
      "zip": "36582",
      "lat": 33.40338210816989,
      "lng": -86.94214893206868
    },
    "status": "scheduled",
    "createdAt": "2025-10-26T07:45:19.719Z"
  },
  {
    "id": "apt-1762470515198-44",
    "repId": "rep43",
    "date": "2025-11-06",
    "timeSlot": "10am",
    "customerName": "Christopher Harris",
    "customerPhone": "854-877-3810",
    "customerEmail": "christopher.harris@email.com",
    "address": {
      "street": "5126 Oak Ave",
      "city": "North Augusta",
      "state": "SC",
      "zip": "29860",
      "lat": 34.02555285984688,
      "lng": -80.94150296717183
    },
    "status": "scheduled",
    "createdAt": "2025-10-24T17:14:49.926Z"
  },
  {
    "id": "apt-1762470515198-45",
    "repId": "rep44",
    "date": "2025-11-06",
    "timeSlot": "7pm",
    "customerName": "Stephanie King",
    "customerPhone": "318-936-0066",
    "customerEmail": "stephanie.king@email.com",
    "address": {
      "street": "2849 Park Blvd",
      "city": "Covington",
      "state": "LA",
      "zip": "70433",
      "lat": 30.352345462548968,
      "lng": -91.16470687714047
    },
    "status": "scheduled",
    "createdAt": "2025-10-27T02:26:28.225Z"
  },
  {
    "id": "apt-1762470515198-46",
    "repId": "rep45",
    "date": "2025-11-06",
    "timeSlot": "2pm",
    "customerName": "Michelle Walker",
    "customerPhone": "254-664-3812",
    "customerEmail": "michelle.walker@email.com",
    "address": {
      "street": "662 Oak Ave",
      "city": "Anna",
      "state": "TX",
      "zip": "75409",
      "lat": 32.73939832119221,
      "lng": -97.07287408775557
    },
    "status": "scheduled",
    "createdAt": "2025-10-18T02:21:11.742Z"
  },
  {
    "id": "apt-1762470515198-47",
    "repId": "rep45",
    "date": "2025-11-06",
    "timeSlot": "7pm",
    "customerName": "Amanda Garcia",
    "customerPhone": "254-971-2875",
    "customerEmail": "amanda.garcia@email.com",
    "address": {
      "street": "8499 Pine St",
      "city": "Anna",
      "state": "TX",
      "zip": "75409",
      "lat": 32.72104000395707,
      "lng": -97.01492252226194
    },
    "status": "scheduled",
    "createdAt": "2025-10-18T05:52:09.311Z"
  },
  {
    "id": "apt-1762470515198-48",
    "repId": "rep46",
    "date": "2025-11-06",
    "timeSlot": "10am",
    "customerName": "Ryan Mitchell",
    "customerPhone": "854-260-0120",
    "customerEmail": "ryan.mitchell@email.com",
    "address": {
      "street": "5377 Main St",
      "city": "North Augusta",
      "state": "SC",
      "zip": "29860",
      "lat": 34.14405894910602,
      "lng": -80.97771239035693
    },
    "status": "scheduled",
    "createdAt": "2025-11-05T15:17:18.910Z"
  },
  {
    "id": "apt-1762470515198-49",
    "repId": "rep46",
    "date": "2025-11-06",
    "timeSlot": "7pm",
    "customerName": "James Anderson",
    "customerPhone": "803-484-8032",
    "customerEmail": "james.anderson@email.com",
    "address": {
      "street": "8437 Pine St",
      "city": "North Augusta",
      "state": "SC",
      "zip": "29860",
      "lat": 34.084051187973316,
      "lng": -80.9203636760271
    },
    "status": "scheduled",
    "createdAt": "2025-11-05T06:04:45.317Z"
  },
  {
    "id": "apt-1762470515198-50",
    "repId": "rep48",
    "date": "2025-11-06",
    "timeSlot": "2pm",
    "customerName": "Daniel Lewis",
    "customerPhone": "629-988-6859",
    "customerEmail": "daniel.lewis@email.com",
    "address": {
      "street": "1765 Park Blvd",
      "city": "Jackson",
      "state": "TN",
      "zip": "38305",
      "lat": 36.101993362857336,
      "lng": -87.00151886935579
    },
    "status": "scheduled",
    "createdAt": "2025-11-03T22:00:45.951Z"
  },
  {
    "id": "apt-1762470515198-51",
    "repId": "rep48",
    "date": "2025-11-06",
    "timeSlot": "7pm",
    "customerName": "Jessica Moore",
    "customerPhone": "629-487-0390",
    "customerEmail": "jessica.moore@email.com",
    "address": {
      "street": "692 Cedar Ln",
      "city": "Jackson",
      "state": "TN",
      "zip": "38305",
      "lat": 36.158008042888405,
      "lng": -86.94739320649852
    },
    "status": "scheduled",
    "createdAt": "2025-10-10T23:01:02.989Z"
  },
  {
    "id": "apt-1762470515198-52",
    "repId": "rep49",
    "date": "2025-11-06",
    "timeSlot": "2pm",
    "customerName": "Lisa Brown",
    "customerPhone": "251-985-3384",
    "customerEmail": "lisa.brown@email.com",
    "address": {
      "street": "3503 Elm St",
      "city": "Tuscaloosa",
      "state": "AL",
      "zip": "35406",
      "lat": 33.49726887344442,
      "lng": -86.7218982418403
    },
    "status": "scheduled",
    "createdAt": "2025-10-11T14:11:48.079Z"
  },
  {
    "id": "apt-1762470515198-53",
    "repId": "rep49",
    "date": "2025-11-06",
    "timeSlot": "7pm",
    "customerName": "Emily White",
    "customerPhone": "334-824-3119",
    "customerEmail": "emily.white@email.com",
    "address": {
      "street": "6065 Main St",
      "city": "Tuscaloosa",
      "state": "AL",
      "zip": "35406",
      "lat": 33.47220537003235,
      "lng": -86.78629485377299
    },
    "status": "scheduled",
    "createdAt": "2025-11-01T18:30:43.521Z"
  },
  {
    "id": "apt-1762470515198-54",
    "repId": "rep50",
    "date": "2025-11-06",
    "timeSlot": "10am",
    "customerName": "Matthew Hall",
    "customerPhone": "615-990-9392",
    "customerEmail": "matthew.hall@email.com",
    "address": {
      "street": "964 Main St",
      "city": "Knoxville",
      "state": "TN",
      "zip": "37923",
      "lat": 36.1933922147352,
      "lng": -86.72941389621346
    },
    "status": "scheduled",
    "createdAt": "2025-10-09T12:24:28.191Z"
  },
  {
    "id": "apt-1762470515198-55",
    "repId": "rep50",
    "date": "2025-11-06",
    "timeSlot": "2pm",
    "customerName": "Amanda Garcia",
    "customerPhone": "865-203-8087",
    "customerEmail": "amanda.garcia@email.com",
    "address": {
      "street": "8806 Maple Dr",
      "city": "Knoxville",
      "state": "TN",
      "zip": "37923",
      "lat": 36.26936556361772,
      "lng": -86.67870624782812
    },
    "status": "scheduled",
    "createdAt": "2025-10-17T14:37:54.449Z"
  },
  {
    "id": "apt-1762470515198-56",
    "repId": "rep50",
    "date": "2025-11-06",
    "timeSlot": "7pm",
    "customerName": "Amanda Johnson",
    "customerPhone": "615-326-3757",
    "customerEmail": "amanda.johnson@email.com",
    "address": {
      "street": "3379 Main St",
      "city": "Knoxville",
      "state": "TN",
      "zip": "37923",
      "lat": 36.218657049893814,
      "lng": -86.7049055987423
    },
    "status": "scheduled",
    "createdAt": "2025-10-15T00:35:05.492Z"
  },
  {
    "id": "apt-1762470515198-57",
    "repId": "rep52",
    "date": "2025-11-06",
    "timeSlot": "7pm",
    "customerName": "Jessica Moore",
    "customerPhone": "629-873-3897",
    "customerEmail": "jessica.moore@email.com",
    "address": {
      "street": "4181 Main St",
      "city": "Memphis",
      "state": "TN",
      "zip": "38103",
      "lat": 36.20497921281828,
      "lng": -86.76524419158528
    },
    "status": "scheduled",
    "createdAt": "2025-10-18T08:57:58.928Z"
  },
  {
    "id": "apt-1762470515198-58",
    "repId": "rep53",
    "date": "2025-11-06",
    "timeSlot": "2pm",
    "customerName": "Jessica Moore",
    "customerPhone": "251-464-5857",
    "customerEmail": "jessica.moore@email.com",
    "address": {
      "street": "1041 Main St",
      "city": "Athens",
      "state": "AL",
      "zip": "35611",
      "lat": 33.29485821686154,
      "lng": -86.5942242669751
    },
    "status": "scheduled",
    "createdAt": "2025-10-22T04:33:51.650Z"
  },
  {
    "id": "apt-1762470515198-59",
    "repId": "rep54",
    "date": "2025-11-06",
    "timeSlot": "10am",
    "customerName": "David Lee",
    "customerPhone": "318-816-6739",
    "customerEmail": "david.lee@email.com",
    "address": {
      "street": "5201 Elm St",
      "city": "Greenwood",
      "state": "LA",
      "zip": "71033",
      "lat": 30.28325520298401,
      "lng": -91.29156967770564
    },
    "status": "scheduled",
    "createdAt": "2025-10-11T02:49:19.039Z"
  },
  {
    "id": "apt-1762470515198-60",
    "repId": "rep54",
    "date": "2025-11-06",
    "timeSlot": "7pm",
    "customerName": "Kimberly Crump",
    "customerPhone": "985-458-3558",
    "customerEmail": "kimberly.crump@email.com",
    "address": {
      "street": "679 Elm St",
      "city": "Greenwood",
      "state": "LA",
      "zip": "71033",
      "lat": 30.2374717068583,
      "lng": -91.23254324509544
    },
    "status": "scheduled",
    "createdAt": "2025-10-17T03:25:48.308Z"
  },
  {
    "id": "apt-1762470515198-61",
    "repId": "rep57",
    "date": "2025-11-06",
    "timeSlot": "10am",
    "customerName": "Melissa Scott",
    "customerPhone": "501-875-7120",
    "customerEmail": "melissa.scott@email.com",
    "address": {
      "street": "2838 Oak Ave",
      "city": "RUSSELLVILLE",
      "state": "AR",
      "zip": "72802",
      "lat": 34.651081635116384,
      "lng": -92.16419229560482
    },
    "status": "scheduled",
    "createdAt": "2025-10-23T17:42:17.759Z"
  },
  {
    "id": "apt-1762470515198-62",
    "repId": "rep57",
    "date": "2025-11-06",
    "timeSlot": "7pm",
    "customerName": "Christopher Harris",
    "customerPhone": "479-901-2766",
    "customerEmail": "christopher.harris@email.com",
    "address": {
      "street": "8267 Maple Dr",
      "city": "RUSSELLVILLE",
      "state": "AR",
      "zip": "72802",
      "lat": 34.58644319551952,
      "lng": -92.1767017845032
    },
    "status": "scheduled",
    "createdAt": "2025-10-11T01:07:56.341Z"
  },
  {
    "id": "apt-1762470515198-63",
    "repId": "rep59",
    "date": "2025-11-06",
    "timeSlot": "7pm",
    "customerName": "Jason Turner",
    "customerPhone": "214-416-3952",
    "customerEmail": "jason.turner@email.com",
    "address": {
      "street": "9303 Park Blvd",
      "city": "GREENVILLE",
      "state": "TX",
      "zip": "75401",
      "lat": 32.95216982429349,
      "lng": -97.01321562045476
    },
    "status": "scheduled",
    "createdAt": "2025-10-11T00:18:36.055Z"
  },
  {
    "id": "apt-1762470515198-64",
    "repId": "rep62",
    "date": "2025-11-06",
    "timeSlot": "10am",
    "customerName": "Jessica Moore",
    "customerPhone": "501-638-4907",
    "customerEmail": "jessica.moore@email.com",
    "address": {
      "street": "3451 Main St",
      "city": "Hot Springs",
      "state": "AR",
      "zip": "71913",
      "lat": 34.78735381833175,
      "lng": -92.39050327951425
    },
    "status": "scheduled",
    "createdAt": "2025-10-28T00:59:05.522Z"
  },
  {
    "id": "apt-1762470515198-65",
    "repId": "rep62",
    "date": "2025-11-06",
    "timeSlot": "7pm",
    "customerName": "Robert Taylor",
    "customerPhone": "501-817-4896",
    "customerEmail": "robert.taylor@email.com",
    "address": {
      "street": "7171 Main St",
      "city": "Hot Springs",
      "state": "AR",
      "zip": "71913",
      "lat": 34.70342738862346,
      "lng": -92.3876201518205
    },
    "status": "scheduled",
    "createdAt": "2025-11-03T14:08:46.247Z"
  },
  {
    "id": "apt-1762470515198-66",
    "repId": "rep63",
    "date": "2025-11-06",
    "timeSlot": "2pm",
    "customerName": "Melissa Scott",
    "customerPhone": "337-788-7633",
    "customerEmail": "melissa.scott@email.com",
    "address": {
      "street": "7758 Park Blvd",
      "city": "Benton",
      "state": "LA",
      "zip": "71006",
      "lat": 30.468828083967768,
      "lng": -91.12458249046469
    },
    "status": "scheduled",
    "createdAt": "2025-10-11T07:20:44.364Z"
  },
  {
    "id": "apt-1762470515198-67",
    "repId": "rep64",
    "date": "2025-11-06",
    "timeSlot": "10am",
    "customerName": "Brandon White",
    "customerPhone": "256-937-8195",
    "customerEmail": "brandon.white@email.com",
    "address": {
      "street": "4133 Cedar Ln",
      "city": "Leeds",
      "state": "AL",
      "zip": "35094",
      "lat": 33.46198907892044,
      "lng": -86.65493085396825
    },
    "status": "scheduled",
    "createdAt": "2025-11-03T04:44:02.208Z"
  },
  {
    "id": "apt-1762470515198-68",
    "repId": "rep64",
    "date": "2025-11-06",
    "timeSlot": "2pm",
    "customerName": "Christopher Harris",
    "customerPhone": "334-271-7811",
    "customerEmail": "christopher.harris@email.com",
    "address": {
      "street": "9131 Oak Ave",
      "city": "Leeds",
      "state": "AL",
      "zip": "35094",
      "lat": 33.46746509008942,
      "lng": -86.64711110010164
    },
    "status": "scheduled",
    "createdAt": "2025-10-11T22:40:39.812Z"
  },
  {
    "id": "apt-1762470515198-69",
    "repId": "rep64",
    "date": "2025-11-06",
    "timeSlot": "7pm",
    "customerName": "Brian Wright",
    "customerPhone": "334-549-5315",
    "customerEmail": "brian.wright@email.com",
    "address": {
      "street": "8556 Park Blvd",
      "city": "Leeds",
      "state": "AL",
      "zip": "35094",
      "lat": 33.43826001675185,
      "lng": -86.64773542672961
    },
    "status": "scheduled",
    "createdAt": "2025-10-20T21:06:10.825Z"
  },
  {
    "id": "apt-1762470515198-70",
    "repId": "rep65",
    "date": "2025-11-06",
    "timeSlot": "10am",
    "customerName": "Michael Thompson",
    "customerPhone": "972-215-8450",
    "customerEmail": "michael.thompson@email.com",
    "address": {
      "street": "7215 Main St",
      "city": "Houston",
      "state": "TX",
      "zip": "77069",
      "lat": 32.79118040611172,
      "lng": -96.65813935311313
    },
    "status": "scheduled",
    "createdAt": "2025-11-05T08:50:29.180Z"
  },
  {
    "id": "apt-1762470515198-71",
    "repId": "rep66",
    "date": "2025-11-06",
    "timeSlot": "10am",
    "customerName": "Angela Martinez",
    "customerPhone": "936-995-7957",
    "customerEmail": "angela.martinez@email.com",
    "address": {
      "street": "3338 Main St",
      "city": "Tyler",
      "state": "TX",
      "zip": "75709",
      "lat": 32.97191560687597,
      "lng": -96.74976000622128
    },
    "status": "scheduled",
    "createdAt": "2025-11-06T15:59:38.695Z"
  },
  {
    "id": "apt-1762470515198-72",
    "repId": "rep67",
    "date": "2025-11-06",
    "timeSlot": "10am",
    "customerName": "Jessica Moore",
    "customerPhone": "931-911-5637",
    "customerEmail": "jessica.moore@email.com",
    "address": {
      "street": "1830 Cedar Ln",
      "city": "Sequatchie",
      "state": "TN",
      "zip": "37374",
      "lat": 35.917413328001864,
      "lng": -86.71097650438247
    },
    "status": "scheduled",
    "createdAt": "2025-10-21T14:01:45.444Z"
  },
  {
    "id": "apt-1762470515198-73",
    "repId": "rep67",
    "date": "2025-11-06",
    "timeSlot": "7pm",
    "customerName": "Michelle Walker",
    "customerPhone": "901-567-9760",
    "customerEmail": "michelle.walker@email.com",
    "address": {
      "street": "5653 Main St",
      "city": "Sequatchie",
      "state": "TN",
      "zip": "37374",
      "lat": 35.96468429924216,
      "lng": -86.76068229996459
    },
    "status": "scheduled",
    "createdAt": "2025-10-10T09:19:25.814Z"
  },
  {
    "id": "apt-1762470515198-74",
    "repId": "rep68",
    "date": "2025-11-06",
    "timeSlot": "10am",
    "customerName": "Brandon White",
    "customerPhone": "423-460-5185",
    "customerEmail": "brandon.white@email.com",
    "address": {
      "street": "1223 Cedar Ln",
      "city": "Memphis",
      "state": "TN",
      "zip": "38120",
      "lat": 35.985448382244016,
      "lng": -86.74577926541062
    },
    "status": "scheduled",
    "createdAt": "2025-10-16T02:07:36.151Z"
  },
  {
    "id": "apt-1762470515198-75",
    "repId": "rep69",
    "date": "2025-11-06",
    "timeSlot": "2pm",
    "customerName": "Angela Martinez",
    "customerPhone": "770-757-7770",
    "customerEmail": "angela.martinez@email.com",
    "address": {
      "street": "1639 Elm St",
      "city": "Morrow",
      "state": "GA",
      "zip": "30260",
      "lat": 33.635842967419286,
      "lng": -84.38262714157773
    },
    "status": "scheduled",
    "createdAt": "2025-10-12T16:51:45.446Z"
  },
  {
    "id": "apt-1762470515198-76",
    "repId": "rep70",
    "date": "2025-11-06",
    "timeSlot": "10am",
    "customerName": "Lauren Allen",
    "customerPhone": "865-715-3004",
    "customerEmail": "lauren.allen@email.com",
    "address": {
      "street": "2062 Elm St",
      "city": "Millington",
      "state": "TN",
      "zip": "38053",
      "lat": 36.165454817648275,
      "lng": -86.69494169033943
    },
    "status": "scheduled",
    "createdAt": "2025-10-25T09:12:49.448Z"
  },
  {
    "id": "apt-1762470515198-77",
    "repId": "rep70",
    "date": "2025-11-06",
    "timeSlot": "7pm",
    "customerName": "Lauren Allen",
    "customerPhone": "423-827-2180",
    "customerEmail": "lauren.allen@email.com",
    "address": {
      "street": "1467 Maple Dr",
      "city": "Millington",
      "state": "TN",
      "zip": "38053",
      "lat": 36.15770361256564,
      "lng": -86.7013606594807
    },
    "status": "scheduled",
    "createdAt": "2025-11-04T19:31:07.335Z"
  },
  {
    "id": "apt-1762470515198-78",
    "repId": "rep72",
    "date": "2025-11-06",
    "timeSlot": "7pm",
    "customerName": "Melissa Scott",
    "customerPhone": "762-316-3592",
    "customerEmail": "melissa.scott@email.com",
    "address": {
      "street": "3874 Elm St",
      "city": "Canton",
      "state": "GA",
      "zip": "30114",
      "lat": 33.694811960904545,
      "lng": -84.39671658827821
    },
    "status": "scheduled",
    "createdAt": "2025-10-15T10:09:36.408Z"
  },
  {
    "id": "apt-1762470515198-79",
    "repId": "rep80",
    "date": "2025-11-06",
    "timeSlot": "10am",
    "customerName": "Rachel Adams",
    "customerPhone": "423-825-4419",
    "customerEmail": "rachel.adams@email.com",
    "address": {
      "street": "1082 Main St",
      "city": "Lebanon",
      "state": "TN",
      "zip": "37087",
      "lat": 36.206235556150354,
      "lng": -87.05656880482397
    },
    "status": "scheduled",
    "createdAt": "2025-11-06T18:34:54.294Z"
  },
  {
    "id": "apt-1762470515198-80",
    "repId": "rep82",
    "date": "2025-11-06",
    "timeSlot": "7pm",
    "customerName": "Joshua Young",
    "customerPhone": "678-490-8692",
    "customerEmail": "joshua.young@email.com",
    "address": {
      "street": "1801 Main St",
      "city": "Johns Creek",
      "state": "GA",
      "zip": "30097",
      "lat": 33.48961823248917,
      "lng": -84.60469638116804
    },
    "status": "scheduled",
    "createdAt": "2025-10-29T12:31:54.501Z"
  },
  {
    "id": "apt-1762470515198-81",
    "repId": "rep83",
    "date": "2025-11-06",
    "timeSlot": "10am",
    "customerName": "Sarah Johnson",
    "customerPhone": "555-744-0675",
    "customerEmail": "sarah.johnson@email.com",
    "address": {
      "street": "8433 Pine St",
      "city": "Birmingham",
      "state": "Al",
      "zip": "36110",
      "lat": 33.92388510463473,
      "lng": -84.57705126998009
    },
    "status": "scheduled",
    "createdAt": "2025-10-08T13:42:48.410Z"
  },
  {
    "id": "apt-1762470515198-82",
    "repId": "rep84",
    "date": "2025-11-06",
    "timeSlot": "10am",
    "customerName": "Kimberly Crump",
    "customerPhone": "555-595-6582",
    "customerEmail": "kimberly.crump@email.com",
    "address": {
      "street": "517 Oak Ave",
      "city": "Sicklerville",
      "state": "NJ",
      "zip": "08081",
      "lat": 39.92048648348542,
      "lng": -74.6937643463128
    },
    "status": "scheduled",
    "createdAt": "2025-10-19T20:24:50.073Z"
  },
  {
    "id": "apt-1762470515198-83",
    "repId": "rep85",
    "date": "2025-11-06",
    "timeSlot": "7pm",
    "customerName": "Kimberly Crump",
    "customerPhone": "662-895-2981",
    "customerEmail": "kimberly.crump@email.com",
    "address": {
      "street": "5051 Oak Ave",
      "city": "Columbus",
      "state": "MS",
      "zip": "39701",
      "lat": 32.266084812877914,
      "lng": -90.03935067763216
    },
    "status": "scheduled",
    "createdAt": "2025-10-19T20:53:10.221Z"
  },
  {
    "id": "apt-1762470515198-84",
    "repId": "rep87",
    "date": "2025-11-06",
    "timeSlot": "2pm",
    "customerName": "Matthew Hall",
    "customerPhone": "816-569-0308",
    "customerEmail": "matthew.hall@email.com",
    "address": {
      "street": "1495 Maple Dr",
      "city": "St. Louis",
      "state": "MO",
      "zip": "63141",
      "lat": 38.62195430726139,
      "lng": -90.1239040716278
    },
    "status": "scheduled",
    "createdAt": "2025-10-15T18:54:59.291Z"
  },
  {
    "id": "apt-1762470515198-85",
    "repId": "rep88",
    "date": "2025-11-06",
    "timeSlot": "2pm",
    "customerName": "Amanda Garcia",
    "customerPhone": "580-904-6749",
    "customerEmail": "amanda.garcia@email.com",
    "address": {
      "street": "9195 Elm St",
      "city": "Oklahoma City",
      "state": "OK",
      "zip": "73134",
      "lat": 35.53065396867534,
      "lng": -97.61568688187731
    },
    "status": "scheduled",
    "createdAt": "2025-10-08T19:08:08.748Z"
  },
  {
    "id": "apt-1762470515198-86",
    "repId": "rep89",
    "date": "2025-11-06",
    "timeSlot": "10am",
    "customerName": "Stephanie King",
    "customerPhone": "228-217-8354",
    "customerEmail": "stephanie.king@email.com",
    "address": {
      "street": "9850 Main St",
      "city": "Southaven",
      "state": "MS",
      "zip": "38671",
      "lat": 32.13650240506921,
      "lng": -90.00768442335294
    },
    "status": "scheduled",
    "createdAt": "2025-10-25T15:22:13.167Z"
  },
  {
    "id": "apt-1762470515198-87",
    "repId": "rep90",
    "date": "2025-11-06",
    "timeSlot": "7pm",
    "customerName": "Christopher Harris",
    "customerPhone": "769-624-9527",
    "customerEmail": "christopher.harris@email.com",
    "address": {
      "street": "2000 Main St",
      "city": "Pearl",
      "state": "MS",
      "zip": "39208",
      "lat": 32.180136029799435,
      "lng": -90.10392335390453
    },
    "status": "scheduled",
    "createdAt": "2025-10-17T23:02:31.350Z"
  },
  {
    "id": "apt-1762470515198-88",
    "repId": "rep91",
    "date": "2025-11-06",
    "timeSlot": "7pm",
    "customerName": "Brandon White",
    "customerPhone": "601-856-8072",
    "customerEmail": "brandon.white@email.com",
    "address": {
      "street": "8887 Elm St",
      "city": "Southaven",
      "state": "MS",
      "zip": "38671",
      "lat": 32.420992989504455,
      "lng": -90.07358319185332
    },
    "status": "scheduled",
    "createdAt": "2025-10-15T15:38:10.346Z"
  },
  {
    "id": "apt-1762470515198-89",
    "repId": "rep92",
    "date": "2025-11-06",
    "timeSlot": "2pm",
    "customerName": "Stephanie King",
    "customerPhone": "769-512-7540",
    "customerEmail": "stephanie.king@email.com",
    "address": {
      "street": "8183 Cedar Ln",
      "city": "Greenville",
      "state": "MS",
      "zip": "38701",
      "lat": 32.13233656935564,
      "lng": -90.23474835829758
    },
    "status": "scheduled",
    "createdAt": "2025-10-26T08:07:24.390Z"
  },
  {
    "id": "apt-1762470515198-90",
    "repId": "rep92",
    "date": "2025-11-06",
    "timeSlot": "7pm",
    "customerName": "Emily White",
    "customerPhone": "769-498-9730",
    "customerEmail": "emily.white@email.com",
    "address": {
      "street": "9430 Elm St",
      "city": "Greenville",
      "state": "MS",
      "zip": "38701",
      "lat": 32.16190095070556,
      "lng": -90.24116605140622
    },
    "status": "scheduled",
    "createdAt": "2025-10-24T20:39:48.727Z"
  },
  {
    "id": "apt-1762470515198-91",
    "repId": "rep94",
    "date": "2025-11-06",
    "timeSlot": "2pm",
    "customerName": "James Anderson",
    "customerPhone": "662-300-4787",
    "customerEmail": "james.anderson@email.com",
    "address": {
      "street": "2210 Oak Ave",
      "city": "Pearl",
      "state": "MS",
      "zip": "39208",
      "lat": 32.444138257309746,
      "lng": -90.39304211342592
    },
    "status": "scheduled",
    "createdAt": "2025-11-02T16:08:35.347Z"
  },
  {
    "id": "apt-1762470515198-92",
    "repId": "rep97",
    "date": "2025-11-06",
    "timeSlot": "2pm",
    "customerName": "Melissa Scott",
    "customerPhone": "601-683-4741",
    "customerEmail": "melissa.scott@email.com",
    "address": {
      "street": "9814 Park Blvd",
      "city": "Southaven",
      "state": "MS",
      "zip": "38671",
      "lat": 32.19325887872236,
      "lng": -90.27169277814063
    },
    "status": "scheduled",
    "createdAt": "2025-10-28T10:11:21.644Z"
  },
  {
    "id": "apt-1762470515198-93",
    "repId": "rep98",
    "date": "2025-11-06",
    "timeSlot": "10am",
    "customerName": "Lauren Allen",
    "customerPhone": "417-963-5619",
    "customerEmail": "lauren.allen@email.com",
    "address": {
      "street": "271 Park Blvd",
      "city": "Kansas City",
      "state": "MO",
      "zip": "64117",
      "lat": 38.81655391683131,
      "lng": -90.03504533498858
    },
    "status": "scheduled",
    "createdAt": "2025-10-09T03:56:48.213Z"
  },
  {
    "id": "apt-1762470515198-94",
    "repId": "rep1",
    "date": "2025-11-07",
    "timeSlot": "2pm",
    "customerName": "Tom Wilson",
    "customerPhone": "470-818-8360",
    "customerEmail": "tom.wilson@email.com",
    "address": {
      "street": "6260 Pine St",
      "city": "KENNESAW",
      "state": "GA",
      "zip": "30144",
      "lat": 33.80390437055596,
      "lng": -84.39194576238194
    },
    "status": "scheduled",
    "createdAt": "2025-10-09T03:28:59.868Z"
  },
  {
    "id": "apt-1762470515198-95",
    "repId": "rep1",
    "date": "2025-11-07",
    "timeSlot": "7pm",
    "customerName": "Jason Turner",
    "customerPhone": "478-262-8447",
    "customerEmail": "jason.turner@email.com",
    "address": {
      "street": "5133 Elm St",
      "city": "KENNESAW",
      "state": "GA",
      "zip": "30144",
      "lat": 33.81850526681772,
      "lng": -84.38836651466471
    },
    "status": "scheduled",
    "createdAt": "2025-10-18T13:36:31.496Z"
  },
  {
    "id": "apt-1762470515198-96",
    "repId": "rep2",
    "date": "2025-11-07",
    "timeSlot": "2pm",
    "customerName": "Lauren Allen",
    "customerPhone": "915-751-6349",
    "customerEmail": "lauren.allen@email.com",
    "address": {
      "street": "7100 Park Blvd",
      "city": "MCKINNEY",
      "state": "TX",
      "zip": "75071",
      "lat": 32.66724471778534,
      "lng": -96.9896124143839
    },
    "status": "scheduled",
    "createdAt": "2025-10-16T08:38:38.342Z"
  },
  {
    "id": "apt-1762470515198-97",
    "repId": "rep3",
    "date": "2025-11-07",
    "timeSlot": "2pm",
    "customerName": "Kimberly Crump",
    "customerPhone": "770-543-2475",
    "customerEmail": "kimberly.crump@email.com",
    "address": {
      "street": "8442 Park Blvd",
      "city": "Douglasville",
      "state": "GA",
      "zip": "30135",
      "lat": 33.96352544327147,
      "lng": -84.34688937448557
    },
    "status": "scheduled",
    "createdAt": "2025-10-22T03:16:04.176Z"
  },
  {
    "id": "apt-1762470515198-98",
    "repId": "rep3",
    "date": "2025-11-07",
    "timeSlot": "7pm",
    "customerName": "Kimberly Crump",
    "customerPhone": "770-339-1091",
    "customerEmail": "kimberly.crump@email.com",
    "address": {
      "street": "8005 Maple Dr",
      "city": "Douglasville",
      "state": "GA",
      "zip": "30135",
      "lat": 33.88147061622599,
      "lng": -84.3749863546649
    },
    "status": "scheduled",
    "createdAt": "2025-10-22T13:50:14.850Z"
  },
  {
    "id": "apt-1762470515198-99",
    "repId": "rep4",
    "date": "2025-11-07",
    "timeSlot": "10am",
    "customerName": "Samantha Lee",
    "customerPhone": "956-328-5490",
    "customerEmail": "samantha.lee@email.com",
    "address": {
      "street": "9830 Oak Ave",
      "city": "COPPELL",
      "state": "TX",
      "zip": "75019",
      "lat": 32.80708580661583,
      "lng": -96.66082041998926
    },
    "status": "scheduled",
    "createdAt": "2025-10-27T06:17:27.905Z"
  },
  {
    "id": "apt-1762470515198-100",
    "repId": "rep8",
    "date": "2025-11-07",
    "timeSlot": "2pm",
    "customerName": "Nicole Green",
    "customerPhone": "762-930-4730",
    "customerEmail": "nicole.green@email.com",
    "address": {
      "street": "1057 Pine St",
      "city": "FAYETTEVILLE",
      "state": "GA",
      "zip": "30214",
      "lat": 33.89331981822918,
      "lng": -84.58174167365746
    },
    "status": "scheduled",
    "createdAt": "2025-10-08T10:10:02.421Z"
  },
  {
    "id": "apt-1762470515198-101",
    "repId": "rep8",
    "date": "2025-11-07",
    "timeSlot": "7pm",
    "customerName": "Brian Wright",
    "customerPhone": "706-881-1692",
    "customerEmail": "brian.wright@email.com",
    "address": {
      "street": "8655 Park Blvd",
      "city": "FAYETTEVILLE",
      "state": "GA",
      "zip": "30214",
      "lat": 33.92030898007185,
      "lng": -84.55548420056977
    },
    "status": "scheduled",
    "createdAt": "2025-11-06T02:44:02.835Z"
  },
  {
    "id": "apt-1762470515198-102",
    "repId": "rep9",
    "date": "2025-11-07",
    "timeSlot": "7pm",
    "customerName": "Jessica Moore",
    "customerPhone": "706-238-3772",
    "customerEmail": "jessica.moore@email.com",
    "address": {
      "street": "6551 Maple Dr",
      "city": "SOUTH FULTON",
      "state": "GA",
      "zip": "30349",
      "lat": 33.969702397622214,
      "lng": -84.19715368765168
    },
    "status": "scheduled",
    "createdAt": "2025-10-18T03:19:39.583Z"
  },
  {
    "id": "apt-1762470515198-103",
    "repId": "rep10",
    "date": "2025-11-07",
    "timeSlot": "10am",
    "customerName": "Ryan Mitchell",
    "customerPhone": "678-658-0036",
    "customerEmail": "ryan.mitchell@email.com",
    "address": {
      "street": "1445 Maple Dr",
      "city": "NEWMAN",
      "state": "GA",
      "zip": "30265",
      "lat": 33.964457155735026,
      "lng": -84.12378739928175
    },
    "status": "scheduled",
    "createdAt": "2025-10-10T20:23:29.810Z"
  },
  {
    "id": "apt-1762470515198-104",
    "repId": "rep10",
    "date": "2025-11-07",
    "timeSlot": "2pm",
    "customerName": "Tom Wilson",
    "customerPhone": "678-507-0775",
    "customerEmail": "tom.wilson@email.com",
    "address": {
      "street": "3445 Main St",
      "city": "NEWMAN",
      "state": "GA",
      "zip": "30265",
      "lat": 33.936386000015176,
      "lng": -84.11050997684525
    },
    "status": "scheduled",
    "createdAt": "2025-11-06T08:44:41.595Z"
  },
  {
    "id": "apt-1762470515198-105",
    "repId": "rep11",
    "date": "2025-11-07",
    "timeSlot": "2pm",
    "customerName": "Matthew Hall",
    "customerPhone": "361-295-1284",
    "customerEmail": "matthew.hall@email.com",
    "address": {
      "street": "4951 Park Blvd",
      "city": "Houston",
      "state": "TX",
      "zip": "77090",
      "lat": 32.825858345860965,
      "lng": -96.75479913562206
    },
    "status": "scheduled",
    "createdAt": "2025-11-05T12:31:39.894Z"
  },
  {
    "id": "apt-1762470515198-106",
    "repId": "rep12",
    "date": "2025-11-07",
    "timeSlot": "10am",
    "customerName": "Christopher Harris",
    "customerPhone": "251-727-1770",
    "customerEmail": "christopher.harris@email.com",
    "address": {
      "street": "2742 Cedar Ln",
      "city": "Talladega",
      "state": "AL",
      "zip": "35160",
      "lat": 33.3465692881845,
      "lng": -86.55331180363248
    },
    "status": "scheduled",
    "createdAt": "2025-11-06T09:51:35.366Z"
  },
  {
    "id": "apt-1762470515198-107",
    "repId": "rep12",
    "date": "2025-11-07",
    "timeSlot": "2pm",
    "customerName": "Sarah Johnson",
    "customerPhone": "256-850-6962",
    "customerEmail": "sarah.johnson@email.com",
    "address": {
      "street": "3806 Oak Ave",
      "city": "Talladega",
      "state": "AL",
      "zip": "35160",
      "lat": 33.359751729304925,
      "lng": -86.5971769051082
    },
    "status": "scheduled",
    "createdAt": "2025-10-09T03:27:05.945Z"
  },
  {
    "id": "apt-1762470515198-108",
    "repId": "rep13",
    "date": "2025-11-07",
    "timeSlot": "10am",
    "customerName": "Jennifer Martinez",
    "customerPhone": "919-435-2089",
    "customerEmail": "jennifer.martinez@email.com",
    "address": {
      "street": "5279 Elm St",
      "city": "GRAHAM",
      "state": "NC",
      "zip": "27253",
      "lat": 35.33093128568329,
      "lng": -80.70919931753654
    },
    "status": "scheduled",
    "createdAt": "2025-10-22T08:31:34.742Z"
  },
  {
    "id": "apt-1762470515198-109",
    "repId": "rep14",
    "date": "2025-11-07",
    "timeSlot": "10am",
    "customerName": "Amanda Johnson",
    "customerPhone": "334-681-5176",
    "customerEmail": "amanda.johnson@email.com",
    "address": {
      "street": "7035 Elm St",
      "city": "Opelika",
      "state": "AL",
      "zip": "36804",
      "lat": 33.37409665625081,
      "lng": -86.87633452630516
    },
    "status": "scheduled",
    "createdAt": "2025-10-14T09:44:04.181Z"
  },
  {
    "id": "apt-1762470515198-110",
    "repId": "rep15",
    "date": "2025-11-07",
    "timeSlot": "2pm",
    "customerName": "Kimberly Crump",
    "customerPhone": "706-931-5894",
    "customerEmail": "kimberly.crump@email.com",
    "address": {
      "street": "1828 Main St",
      "city": "SYLVESTER",
      "state": "GA",
      "zip": "31791",
      "lat": 33.60083048989631,
      "lng": -84.57620841324186
    },
    "status": "scheduled",
    "createdAt": "2025-11-06T09:44:36.695Z"
  },
  {
    "id": "apt-1762470515198-111",
    "repId": "rep16",
    "date": "2025-11-07",
    "timeSlot": "10am",
    "customerName": "Brian Wright",
    "customerPhone": "318-894-8993",
    "customerEmail": "brian.wright@email.com",
    "address": {
      "street": "2859 Pine St",
      "city": "BENTON",
      "state": "LA",
      "zip": "71006",
      "lat": 30.572523787025524,
      "lng": -91.42560694490824
    },
    "status": "scheduled",
    "createdAt": "2025-10-31T21:58:31.244Z"
  },
  {
    "id": "apt-1762470515198-112",
    "repId": "rep17",
    "date": "2025-11-07",
    "timeSlot": "10am",
    "customerName": "Lisa Brown",
    "customerPhone": "865-296-6026",
    "customerEmail": "lisa.brown@email.com",
    "address": {
      "street": "6503 Pine St",
      "city": "BARTLETT",
      "state": "TN",
      "zip": "38135",
      "lat": 36.259477670406554,
      "lng": -86.85456481861141
    },
    "status": "scheduled",
    "createdAt": "2025-10-28T06:31:15.348Z"
  },
  {
    "id": "apt-1762470515198-113",
    "repId": "rep17",
    "date": "2025-11-07",
    "timeSlot": "7pm",
    "customerName": "Emily White",
    "customerPhone": "731-443-5069",
    "customerEmail": "emily.white@email.com",
    "address": {
      "street": "7663 Cedar Ln",
      "city": "BARTLETT",
      "state": "TN",
      "zip": "38135",
      "lat": 36.284261362007086,
      "lng": -86.81680430244829
    },
    "status": "scheduled",
    "createdAt": "2025-10-16T23:55:42.493Z"
  },
  {
    "id": "apt-1762470515198-114",
    "repId": "rep18",
    "date": "2025-11-07",
    "timeSlot": "2pm",
    "customerName": "David Lee",
    "customerPhone": "915-488-5257",
    "customerEmail": "david.lee@email.com",
    "address": {
      "street": "4714 Oak Ave",
      "city": "Houston",
      "state": "TX",
      "zip": "77002",
      "lat": 32.957435307327586,
      "lng": -96.86865998372853
    },
    "status": "scheduled",
    "createdAt": "2025-11-01T20:27:13.101Z"
  },
  {
    "id": "apt-1762470515198-115",
    "repId": "rep19",
    "date": "2025-11-07",
    "timeSlot": "7pm",
    "customerName": "Samantha Lee",
    "customerPhone": "985-409-1146",
    "customerEmail": "samantha.lee@email.com",
    "address": {
      "street": "3356 Park Blvd",
      "city": "BATON ROUGE",
      "state": "LA",
      "zip": "70817",
      "lat": 30.658133984599722,
      "lng": -91.02827071210751
    },
    "status": "scheduled",
    "createdAt": "2025-10-22T22:03:35.159Z"
  },
  {
    "id": "apt-1762470515198-116",
    "repId": "rep20",
    "date": "2025-11-07",
    "timeSlot": "10am",
    "customerName": "Jason Turner",
    "customerPhone": "864-836-1286",
    "customerEmail": "jason.turner@email.com",
    "address": {
      "street": "9062 Main St",
      "city": "LADSON",
      "state": "SC",
      "zip": "29456",
      "lat": 33.83828967067959,
      "lng": -81.05007639935168
    },
    "status": "scheduled",
    "createdAt": "2025-10-24T17:23:59.674Z"
  },
  {
    "id": "apt-1762470515198-117",
    "repId": "rep20",
    "date": "2025-11-07",
    "timeSlot": "2pm",
    "customerName": "James Anderson",
    "customerPhone": "854-823-0753",
    "customerEmail": "james.anderson@email.com",
    "address": {
      "street": "8089 Maple Dr",
      "city": "LADSON",
      "state": "SC",
      "zip": "29456",
      "lat": 33.86375783010613,
      "lng": -81.0648500471543
    },
    "status": "scheduled",
    "createdAt": "2025-10-09T09:01:11.528Z"
  },
  {
    "id": "apt-1762470515198-118",
    "repId": "rep20",
    "date": "2025-11-07",
    "timeSlot": "7pm",
    "customerName": "Jason Turner",
    "customerPhone": "854-684-9198",
    "customerEmail": "jason.turner@email.com",
    "address": {
      "street": "8617 Pine St",
      "city": "LADSON",
      "state": "SC",
      "zip": "29456",
      "lat": 33.86620364474627,
      "lng": -80.97214551647366
    },
    "status": "scheduled",
    "createdAt": "2025-10-19T05:59:21.865Z"
  },
  {
    "id": "apt-1762470515198-119",
    "repId": "rep21",
    "date": "2025-11-07",
    "timeSlot": "10am",
    "customerName": "Ryan Mitchell",
    "customerPhone": "470-703-0704",
    "customerEmail": "ryan.mitchell@email.com",
    "address": {
      "street": "6433 Park Blvd",
      "city": "Macon",
      "state": "GA",
      "zip": "31216",
      "lat": 33.51618038557571,
      "lng": -84.31105490383234
    },
    "status": "scheduled",
    "createdAt": "2025-10-08T12:50:13.614Z"
  },
  {
    "id": "apt-1762470515198-120",
    "repId": "rep29",
    "date": "2025-11-07",
    "timeSlot": "2pm",
    "customerName": "Angela Martinez",
    "customerPhone": "470-381-7034",
    "customerEmail": "angela.martinez@email.com",
    "address": {
      "street": "8217 Maple Dr",
      "city": "Albany",
      "state": "GA",
      "zip": "31705",
      "lat": 33.6400186674176,
      "lng": -84.2971970176268
    },
    "status": "scheduled",
    "createdAt": "2025-10-09T16:50:01.607Z"
  },
  {
    "id": "apt-1762470515198-121",
    "repId": "rep29",
    "date": "2025-11-07",
    "timeSlot": "7pm",
    "customerName": "Ashley Clark",
    "customerPhone": "762-562-9088",
    "customerEmail": "ashley.clark@email.com",
    "address": {
      "street": "4831 Park Blvd",
      "city": "Albany",
      "state": "GA",
      "zip": "31705",
      "lat": 33.634064408166964,
      "lng": -84.26815198114147
    },
    "status": "scheduled",
    "createdAt": "2025-10-21T06:59:05.943Z"
  },
  {
    "id": "apt-1762470515198-122",
    "repId": "rep31",
    "date": "2025-11-07",
    "timeSlot": "7pm",
    "customerName": "Amanda Garcia",
    "customerPhone": "615-224-1049",
    "customerEmail": "amanda.garcia@email.com",
    "address": {
      "street": "3930 Main St",
      "city": "Memphis",
      "state": "TN",
      "zip": "38125",
      "lat": 35.912265645178806,
      "lng": -86.83199626455333
    },
    "status": "scheduled",
    "createdAt": "2025-10-16T00:30:59.422Z"
  },
  {
    "id": "apt-1762470515198-123",
    "repId": "rep34",
    "date": "2025-11-07",
    "timeSlot": "7pm",
    "customerName": "Nicole Green",
    "customerPhone": "901-798-8513",
    "customerEmail": "nicole.green@email.com",
    "address": {
      "street": "7672 Elm St",
      "city": "Memphis",
      "state": "TN",
      "zip": "38127",
      "lat": 36.15564947151607,
      "lng": -86.91447065008704
    },
    "status": "scheduled",
    "createdAt": "2025-10-14T05:01:44.135Z"
  },
  {
    "id": "apt-1762470515198-124",
    "repId": "rep35",
    "date": "2025-11-07",
    "timeSlot": "7pm",
    "customerName": "Daniel Lewis",
    "customerPhone": "662-810-8822",
    "customerEmail": "daniel.lewis@email.com",
    "address": {
      "street": "8275 Pine St",
      "city": "Olive Branch",
      "state": "MS",
      "zip": "38655",
      "lat": 32.4970850242613,
      "lng": -90.11965556964489
    },
    "status": "scheduled",
    "createdAt": "2025-11-05T13:44:05.856Z"
  },
  {
    "id": "apt-1762470515198-125",
    "repId": "rep40",
    "date": "2025-11-07",
    "timeSlot": "7pm",
    "customerName": "Jason Turner",
    "customerPhone": "601-726-4547",
    "customerEmail": "jason.turner@email.com",
    "address": {
      "street": "223 Elm St",
      "city": "Olive Branch",
      "state": "MS",
      "zip": "38654",
      "lat": 32.22178128067328,
      "lng": -90.32649845669702
    },
    "status": "scheduled",
    "createdAt": "2025-10-27T12:13:56.257Z"
  },
  {
    "id": "apt-1762470515198-126",
    "repId": "rep41",
    "date": "2025-11-07",
    "timeSlot": "7pm",
    "customerName": "Brian Wright",
    "customerPhone": "334-407-2189",
    "customerEmail": "brian.wright@email.com",
    "address": {
      "street": "6901 Pine St",
      "city": "Birmingham",
      "state": "AL",
      "zip": "35242",
      "lat": 33.62872917408173,
      "lng": -86.63559062334608
    },
    "status": "scheduled",
    "createdAt": "2025-10-16T03:57:29.908Z"
  },
  {
    "id": "apt-1762470515198-127",
    "repId": "rep42",
    "date": "2025-11-07",
    "timeSlot": "10am",
    "customerName": "Robert Taylor",
    "customerPhone": "334-302-1490",
    "customerEmail": "robert.taylor@email.com",
    "address": {
      "street": "8456 Main St",
      "city": "Theodore",
      "state": "AL",
      "zip": "36582",
      "lat": 33.42050941094364,
      "lng": -86.92041264788863
    },
    "status": "scheduled",
    "createdAt": "2025-10-18T17:58:37.191Z"
  },
  {
    "id": "apt-1762470515198-128",
    "repId": "rep42",
    "date": "2025-11-07",
    "timeSlot": "2pm",
    "customerName": "Samantha Lee",
    "customerPhone": "205-927-8764",
    "customerEmail": "samantha.lee@email.com",
    "address": {
      "street": "2600 Park Blvd",
      "city": "Theodore",
      "state": "AL",
      "zip": "36582",
      "lat": 33.43988978615997,
      "lng": -86.90807805042122
    },
    "status": "scheduled",
    "createdAt": "2025-10-27T17:51:57.627Z"
  },
  {
    "id": "apt-1762470515198-129",
    "repId": "rep43",
    "date": "2025-11-07",
    "timeSlot": "10am",
    "customerName": "Rachel Adams",
    "customerPhone": "854-976-9000",
    "customerEmail": "rachel.adams@email.com",
    "address": {
      "street": "1508 Oak Ave",
      "city": "North Augusta",
      "state": "SC",
      "zip": "29860",
      "lat": 34.008824810457426,
      "lng": -80.90481056871947
    },
    "status": "scheduled",
    "createdAt": "2025-10-16T11:39:58.207Z"
  },
  {
    "id": "apt-1762470515198-130",
    "repId": "rep44",
    "date": "2025-11-07",
    "timeSlot": "7pm",
    "customerName": "Brian Wright",
    "customerPhone": "225-575-7452",
    "customerEmail": "brian.wright@email.com",
    "address": {
      "street": "5266 Elm St",
      "city": "Covington",
      "state": "LA",
      "zip": "70433",
      "lat": 30.368017121570976,
      "lng": -91.12388556750837
    },
    "status": "scheduled",
    "createdAt": "2025-10-31T08:35:22.032Z"
  },
  {
    "id": "apt-1762470515198-131",
    "repId": "rep47",
    "date": "2025-11-07",
    "timeSlot": "7pm",
    "customerName": "Amanda Garcia",
    "customerPhone": "432-432-1449",
    "customerEmail": "amanda.garcia@email.com",
    "address": {
      "street": "7364 Maple Dr",
      "city": "Coppell",
      "state": "TX",
      "zip": "75019",
      "lat": 32.97064663758473,
      "lng": -96.65919098207917
    },
    "status": "scheduled",
    "createdAt": "2025-10-30T12:25:42.850Z"
  },
  {
    "id": "apt-1762470515198-132",
    "repId": "rep48",
    "date": "2025-11-07",
    "timeSlot": "10am",
    "customerName": "Lauren Allen",
    "customerPhone": "901-855-3287",
    "customerEmail": "lauren.allen@email.com",
    "address": {
      "street": "3001 Cedar Ln",
      "city": "Jackson",
      "state": "TN",
      "zip": "38305",
      "lat": 36.19625965624704,
      "lng": -86.93471983114863
    },
    "status": "scheduled",
    "createdAt": "2025-10-20T10:09:50.421Z"
  },
  {
    "id": "apt-1762470515198-133",
    "repId": "rep49",
    "date": "2025-11-07",
    "timeSlot": "7pm",
    "customerName": "Ryan Mitchell",
    "customerPhone": "256-226-3341",
    "customerEmail": "ryan.mitchell@email.com",
    "address": {
      "street": "3449 Cedar Ln",
      "city": "Tuscaloosa",
      "state": "AL",
      "zip": "35406",
      "lat": 33.53999833960344,
      "lng": -86.72975338919171
    },
    "status": "scheduled",
    "createdAt": "2025-10-12T20:23:56.809Z"
  },
  {
    "id": "apt-1762470515198-134",
    "repId": "rep50",
    "date": "2025-11-07",
    "timeSlot": "2pm",
    "customerName": "Ashley Clark",
    "customerPhone": "629-682-8535",
    "customerEmail": "ashley.clark@email.com",
    "address": {
      "street": "8154 Elm St",
      "city": "Knoxville",
      "state": "TN",
      "zip": "37923",
      "lat": 36.24339956254829,
      "lng": -86.71917735807006
    },
    "status": "scheduled",
    "createdAt": "2025-11-04T00:31:31.011Z"
  },
  {
    "id": "apt-1762470515198-135",
    "repId": "rep51",
    "date": "2025-11-07",
    "timeSlot": "10am",
    "customerName": "Lauren Allen",
    "customerPhone": "662-695-1576",
    "customerEmail": "lauren.allen@email.com",
    "address": {
      "street": "7144 Maple Dr",
      "city": "Carriere",
      "state": "MS",
      "zip": "39426",
      "lat": 32.22733671148273,
      "lng": -90.25334560736205
    },
    "status": "scheduled",
    "createdAt": "2025-10-25T14:40:37.714Z"
  },
  {
    "id": "apt-1762470515198-136",
    "repId": "rep51",
    "date": "2025-11-07",
    "timeSlot": "2pm",
    "customerName": "Michael Thompson",
    "customerPhone": "769-254-8285",
    "customerEmail": "michael.thompson@email.com",
    "address": {
      "street": "222 Park Blvd",
      "city": "Carriere",
      "state": "MS",
      "zip": "39426",
      "lat": 32.25921871526033,
      "lng": -90.24858443130934
    },
    "status": "scheduled",
    "createdAt": "2025-10-16T10:33:12.521Z"
  },
  {
    "id": "apt-1762470515198-137",
    "repId": "rep51",
    "date": "2025-11-07",
    "timeSlot": "7pm",
    "customerName": "Lisa Brown",
    "customerPhone": "228-992-6816",
    "customerEmail": "lisa.brown@email.com",
    "address": {
      "street": "7199 Cedar Ln",
      "city": "Carriere",
      "state": "MS",
      "zip": "39426",
      "lat": 32.22699616752055,
      "lng": -90.25697747093525
    },
    "status": "scheduled",
    "createdAt": "2025-11-04T02:59:59.841Z"
  },
  {
    "id": "apt-1762470515198-138",
    "repId": "rep52",
    "date": "2025-11-07",
    "timeSlot": "10am",
    "customerName": "Angela Martinez",
    "customerPhone": "615-977-6738",
    "customerEmail": "angela.martinez@email.com",
    "address": {
      "street": "5296 Elm St",
      "city": "Memphis",
      "state": "TN",
      "zip": "38103",
      "lat": 36.18167385768617,
      "lng": -86.73225284219956
    },
    "status": "scheduled",
    "createdAt": "2025-11-04T11:31:23.844Z"
  },
  {
    "id": "apt-1762470515198-139",
    "repId": "rep53",
    "date": "2025-11-07",
    "timeSlot": "10am",
    "customerName": "James Anderson",
    "customerPhone": "205-472-3773",
    "customerEmail": "james.anderson@email.com",
    "address": {
      "street": "1763 Park Blvd",
      "city": "Athens",
      "state": "AL",
      "zip": "35611",
      "lat": 33.306060297881565,
      "lng": -86.58043556064634
    },
    "status": "scheduled",
    "createdAt": "2025-10-09T00:02:09.928Z"
  },
  {
    "id": "apt-1762470515198-140",
    "repId": "rep53",
    "date": "2025-11-07",
    "timeSlot": "2pm",
    "customerName": "Jessica Moore",
    "customerPhone": "256-633-9408",
    "customerEmail": "jessica.moore@email.com",
    "address": {
      "street": "4426 Park Blvd",
      "city": "Athens",
      "state": "AL",
      "zip": "35611",
      "lat": 33.290368741651534,
      "lng": -86.57321264335128
    },
    "status": "scheduled",
    "createdAt": "2025-10-22T06:40:27.341Z"
  },
  {
    "id": "apt-1762470515198-141",
    "repId": "rep57",
    "date": "2025-11-07",
    "timeSlot": "10am",
    "customerName": "Lisa Brown",
    "customerPhone": "501-390-0250",
    "customerEmail": "lisa.brown@email.com",
    "address": {
      "street": "2144 Maple Dr",
      "city": "RUSSELLVILLE",
      "state": "AR",
      "zip": "72802",
      "lat": 34.64596052888201,
      "lng": -92.24810450250165
    },
    "status": "scheduled",
    "createdAt": "2025-10-19T12:40:49.921Z"
  },
  {
    "id": "apt-1762470515198-142",
    "repId": "rep59",
    "date": "2025-11-07",
    "timeSlot": "7pm",
    "customerName": "Brandon White",
    "customerPhone": "940-611-3621",
    "customerEmail": "brandon.white@email.com",
    "address": {
      "street": "2600 Park Blvd",
      "city": "GREENVILLE",
      "state": "TX",
      "zip": "75401",
      "lat": 32.883278939925255,
      "lng": -97.02796821719421
    },
    "status": "scheduled",
    "createdAt": "2025-10-08T02:50:38.208Z"
  },
  {
    "id": "apt-1762470515198-143",
    "repId": "rep62",
    "date": "2025-11-07",
    "timeSlot": "10am",
    "customerName": "Tom Wilson",
    "customerPhone": "501-504-9164",
    "customerEmail": "tom.wilson@email.com",
    "address": {
      "street": "9258 Cedar Ln",
      "city": "Hot Springs",
      "state": "AR",
      "zip": "71913",
      "lat": 34.7073976160186,
      "lng": -92.34942486836
    },
    "status": "scheduled",
    "createdAt": "2025-11-04T06:24:20.176Z"
  },
  {
    "id": "apt-1762470515198-144",
    "repId": "rep62",
    "date": "2025-11-07",
    "timeSlot": "2pm",
    "customerName": "Stephanie King",
    "customerPhone": "870-683-2932",
    "customerEmail": "stephanie.king@email.com",
    "address": {
      "street": "4014 Elm St",
      "city": "Hot Springs",
      "state": "AR",
      "zip": "71913",
      "lat": 34.69957661891356,
      "lng": -92.42460758515736
    },
    "status": "scheduled",
    "createdAt": "2025-10-13T19:13:58.294Z"
  },
  {
    "id": "apt-1762470515198-145",
    "repId": "rep63",
    "date": "2025-11-07",
    "timeSlot": "2pm",
    "customerName": "Matthew Hall",
    "customerPhone": "504-355-0769",
    "customerEmail": "matthew.hall@email.com",
    "address": {
      "street": "6363 Cedar Ln",
      "city": "Benton",
      "state": "LA",
      "zip": "71006",
      "lat": 30.51299896489266,
      "lng": -91.15702985194982
    },
    "status": "scheduled",
    "createdAt": "2025-11-06T05:25:41.373Z"
  },
  {
    "id": "apt-1762470515198-146",
    "repId": "rep64",
    "date": "2025-11-07",
    "timeSlot": "10am",
    "customerName": "Joshua Young",
    "customerPhone": "251-329-4733",
    "customerEmail": "joshua.young@email.com",
    "address": {
      "street": "6432 Main St",
      "city": "Leeds",
      "state": "AL",
      "zip": "35094",
      "lat": 33.46872546628546,
      "lng": -86.65359428322148
    },
    "status": "scheduled",
    "createdAt": "2025-11-05T10:16:47.073Z"
  },
  {
    "id": "apt-1762470515198-147",
    "repId": "rep64",
    "date": "2025-11-07",
    "timeSlot": "2pm",
    "customerName": "Ashley Clark",
    "customerPhone": "251-972-9726",
    "customerEmail": "ashley.clark@email.com",
    "address": {
      "street": "9341 Pine St",
      "city": "Leeds",
      "state": "AL",
      "zip": "35094",
      "lat": 33.524893998152145,
      "lng": -86.72283295660728
    },
    "status": "scheduled",
    "createdAt": "2025-11-05T15:31:18.774Z"
  },
  {
    "id": "apt-1762470515198-148",
    "repId": "rep65",
    "date": "2025-11-07",
    "timeSlot": "10am",
    "customerName": "Ashley Clark",
    "customerPhone": "830-486-1204",
    "customerEmail": "ashley.clark@email.com",
    "address": {
      "street": "2642 Elm St",
      "city": "Houston",
      "state": "TX",
      "zip": "77069",
      "lat": 32.7825592726918,
      "lng": -96.6680988991701
    },
    "status": "scheduled",
    "createdAt": "2025-10-12T17:26:00.563Z"
  },
  {
    "id": "apt-1762470515198-149",
    "repId": "rep66",
    "date": "2025-11-07",
    "timeSlot": "7pm",
    "customerName": "Lisa Brown",
    "customerPhone": "713-573-4758",
    "customerEmail": "lisa.brown@email.com",
    "address": {
      "street": "1561 Maple Dr",
      "city": "Tyler",
      "state": "TX",
      "zip": "75709",
      "lat": 32.96414690561017,
      "lng": -96.84466165642829
    },
    "status": "scheduled",
    "createdAt": "2025-10-15T00:36:47.997Z"
  },
  {
    "id": "apt-1762470515198-150",
    "repId": "rep67",
    "date": "2025-11-07",
    "timeSlot": "10am",
    "customerName": "Amanda Garcia",
    "customerPhone": "901-213-4022",
    "customerEmail": "amanda.garcia@email.com",
    "address": {
      "street": "2577 Maple Dr",
      "city": "Sequatchie",
      "state": "TN",
      "zip": "37374",
      "lat": 35.954853021905244,
      "lng": -86.72735637399542
    },
    "status": "scheduled",
    "createdAt": "2025-10-26T22:51:41.921Z"
  },
  {
    "id": "apt-1762470515198-151",
    "repId": "rep67",
    "date": "2025-11-07",
    "timeSlot": "7pm",
    "customerName": "Michelle Walker",
    "customerPhone": "901-800-1687",
    "customerEmail": "michelle.walker@email.com",
    "address": {
      "street": "3442 Park Blvd",
      "city": "Sequatchie",
      "state": "TN",
      "zip": "37374",
      "lat": 35.99637980576441,
      "lng": -86.73002109516251
    },
    "status": "scheduled",
    "createdAt": "2025-10-21T21:49:27.831Z"
  },
  {
    "id": "apt-1762470515198-152",
    "repId": "rep68",
    "date": "2025-11-07",
    "timeSlot": "10am",
    "customerName": "Stephanie King",
    "customerPhone": "731-855-6244",
    "customerEmail": "stephanie.king@email.com",
    "address": {
      "street": "3298 Main St",
      "city": "Memphis",
      "state": "TN",
      "zip": "38120",
      "lat": 35.95976070589564,
      "lng": -86.72757367584042
    },
    "status": "scheduled",
    "createdAt": "2025-10-16T15:52:58.501Z"
  },
  {
    "id": "apt-1762470515198-153",
    "repId": "rep68",
    "date": "2025-11-07",
    "timeSlot": "7pm",
    "customerName": "Christopher Harris",
    "customerPhone": "615-467-3652",
    "customerEmail": "christopher.harris@email.com",
    "address": {
      "street": "4585 Cedar Ln",
      "city": "Memphis",
      "state": "TN",
      "zip": "38120",
      "lat": 35.957611230645675,
      "lng": -86.71770761289638
    },
    "status": "scheduled",
    "createdAt": "2025-11-04T06:34:38.619Z"
  },
  {
    "id": "apt-1762470515198-154",
    "repId": "rep69",
    "date": "2025-11-07",
    "timeSlot": "10am",
    "customerName": "Tom Wilson",
    "customerPhone": "478-473-9203",
    "customerEmail": "tom.wilson@email.com",
    "address": {
      "street": "7585 Park Blvd",
      "city": "Morrow",
      "state": "GA",
      "zip": "30260",
      "lat": 33.61897596405388,
      "lng": -84.41363210584566
    },
    "status": "scheduled",
    "createdAt": "2025-11-02T10:40:37.563Z"
  },
  {
    "id": "apt-1762470515198-155",
    "repId": "rep69",
    "date": "2025-11-07",
    "timeSlot": "2pm",
    "customerName": "James Anderson",
    "customerPhone": "404-714-0921",
    "customerEmail": "james.anderson@email.com",
    "address": {
      "street": "2401 Cedar Ln",
      "city": "Morrow",
      "state": "GA",
      "zip": "30260",
      "lat": 33.56607528527584,
      "lng": -84.40900684447973
    },
    "status": "scheduled",
    "createdAt": "2025-10-22T02:35:35.398Z"
  },
  {
    "id": "apt-1762470515198-156",
    "repId": "rep71",
    "date": "2025-11-07",
    "timeSlot": "10am",
    "customerName": "Kimberly Crump",
    "customerPhone": "504-554-3628",
    "customerEmail": "kimberly.crump@email.com",
    "address": {
      "street": "2722 Park Blvd",
      "city": "Lafayette",
      "state": "LA",
      "zip": "70506",
      "lat": 30.66002687335992,
      "lng": -91.14043435385994
    },
    "status": "scheduled",
    "createdAt": "2025-10-17T02:46:18.075Z"
  },
  {
    "id": "apt-1762470515198-157",
    "repId": "rep71",
    "date": "2025-11-07",
    "timeSlot": "2pm",
    "customerName": "Robert Taylor",
    "customerPhone": "985-448-2225",
    "customerEmail": "robert.taylor@email.com",
    "address": {
      "street": "353 Pine St",
      "city": "Lafayette",
      "state": "LA",
      "zip": "70506",
      "lat": 30.650926193181867,
      "lng": -91.14487094385058
    },
    "status": "scheduled",
    "createdAt": "2025-10-27T05:28:48.508Z"
  },
  {
    "id": "apt-1762470515198-158",
    "repId": "rep73",
    "date": "2025-11-07",
    "timeSlot": "10am",
    "customerName": "Mike Davis",
    "customerPhone": "539-853-8806",
    "customerEmail": "mike.davis@email.com",
    "address": {
      "street": "9354 Oak Ave",
      "city": "Owasso",
      "state": "OK",
      "zip": "74055",
      "lat": 35.39288947059897,
      "lng": -97.51018282654839
    },
    "status": "scheduled",
    "createdAt": "2025-10-26T22:25:07.164Z"
  },
  {
    "id": "apt-1762470515198-159",
    "repId": "rep74",
    "date": "2025-11-07",
    "timeSlot": "10am",
    "customerName": "Mike Davis",
    "customerPhone": "325-373-6090",
    "customerEmail": "mike.davis@email.com",
    "address": {
      "street": "5170 Maple Dr",
      "city": "Conroe",
      "state": "TX",
      "zip": "77384",
      "lat": 32.61548647533868,
      "lng": -96.83039583532171
    },
    "status": "scheduled",
    "createdAt": "2025-11-06T04:58:24.179Z"
  },
  {
    "id": "apt-1762470515198-160",
    "repId": "rep75",
    "date": "2025-11-07",
    "timeSlot": "10am",
    "customerName": "Lauren Allen",
    "customerPhone": "901-215-9473",
    "customerEmail": "lauren.allen@email.com",
    "address": {
      "street": "2177 Pine St",
      "city": "Chattanooga",
      "state": "TN",
      "zip": "37421",
      "lat": 36.36465531930371,
      "lng": -86.647625382415
    },
    "status": "scheduled",
    "createdAt": "2025-10-09T02:54:26.817Z"
  },
  {
    "id": "apt-1762470515198-161",
    "repId": "rep75",
    "date": "2025-11-07",
    "timeSlot": "2pm",
    "customerName": "Stephanie King",
    "customerPhone": "731-784-4509",
    "customerEmail": "stephanie.king@email.com",
    "address": {
      "street": "1615 Oak Ave",
      "city": "Chattanooga",
      "state": "TN",
      "zip": "37421",
      "lat": 36.43477981301833,
      "lng": -86.56953772417755
    },
    "status": "scheduled",
    "createdAt": "2025-10-24T02:08:52.951Z"
  },
  {
    "id": "apt-1762470515198-162",
    "repId": "rep76",
    "date": "2025-11-07",
    "timeSlot": "10am",
    "customerName": "Joshua Young",
    "customerPhone": "815-566-6104",
    "customerEmail": "joshua.young@email.com",
    "address": {
      "street": "7888 Cedar Ln",
      "city": "Chester",
      "state": "IL",
      "zip": "62233",
      "lat": 38.392320706787025,
      "lng": -90.23294899002711
    },
    "status": "scheduled",
    "createdAt": "2025-10-09T02:31:28.375Z"
  },
  {
    "id": "apt-1762470515198-163",
    "repId": "rep76",
    "date": "2025-11-07",
    "timeSlot": "7pm",
    "customerName": "Amanda Garcia",
    "customerPhone": "847-790-4578",
    "customerEmail": "amanda.garcia@email.com",
    "address": {
      "street": "4279 Oak Ave",
      "city": "Chester",
      "state": "IL",
      "zip": "62233",
      "lat": 38.42945789159015,
      "lng": -90.20607500801229
    },
    "status": "scheduled",
    "createdAt": "2025-10-11T01:51:57.001Z"
  },
  {
    "id": "apt-1762470515198-164",
    "repId": "rep77",
    "date": "2025-11-07",
    "timeSlot": "10am",
    "customerName": "Robert Taylor",
    "customerPhone": "601-771-7412",
    "customerEmail": "robert.taylor@email.com",
    "address": {
      "street": "3044 Cedar Ln",
      "city": "Brandon",
      "state": "MS",
      "zip": "39047",
      "lat": 32.45192139393355,
      "lng": -90.06562072647979
    },
    "status": "scheduled",
    "createdAt": "2025-10-10T06:31:28.553Z"
  },
  {
    "id": "apt-1762470515198-165",
    "repId": "rep79",
    "date": "2025-11-07",
    "timeSlot": "7pm",
    "customerName": "Joshua Young",
    "customerPhone": "423-560-6083",
    "customerEmail": "joshua.young@email.com",
    "address": {
      "street": "3269 Main St",
      "city": "Knoxville",
      "state": "TN",
      "zip": "37918",
      "lat": 36.38087673107337,
      "lng": -86.72152962276579
    },
    "status": "scheduled",
    "createdAt": "2025-10-28T18:22:48.311Z"
  },
  {
    "id": "apt-1762470515198-166",
    "repId": "rep80",
    "date": "2025-11-07",
    "timeSlot": "10am",
    "customerName": "Lauren Allen",
    "customerPhone": "865-856-2529",
    "customerEmail": "lauren.allen@email.com",
    "address": {
      "street": "7748 Elm St",
      "city": "Lebanon",
      "state": "TN",
      "zip": "37087",
      "lat": 36.239980924936674,
      "lng": -87.05615361497841
    },
    "status": "scheduled",
    "createdAt": "2025-10-09T17:57:11.187Z"
  },
  {
    "id": "apt-1762470515198-167",
    "repId": "rep80",
    "date": "2025-11-07",
    "timeSlot": "2pm",
    "customerName": "Lisa Brown",
    "customerPhone": "731-943-6529",
    "customerEmail": "lisa.brown@email.com",
    "address": {
      "street": "3629 Oak Ave",
      "city": "Lebanon",
      "state": "TN",
      "zip": "37087",
      "lat": 36.17576610387059,
      "lng": -87.0261401206057
    },
    "status": "scheduled",
    "createdAt": "2025-11-06T13:37:25.284Z"
  },
  {
    "id": "apt-1762470515198-168",
    "repId": "rep80",
    "date": "2025-11-07",
    "timeSlot": "7pm",
    "customerName": "Ashley Clark",
    "customerPhone": "423-948-5282",
    "customerEmail": "ashley.clark@email.com",
    "address": {
      "street": "2814 Oak Ave",
      "city": "Lebanon",
      "state": "TN",
      "zip": "37087",
      "lat": 36.22305784162854,
      "lng": -87.0708699958209
    },
    "status": "scheduled",
    "createdAt": "2025-10-25T08:26:58.558Z"
  },
  {
    "id": "apt-1762470515198-169",
    "repId": "rep81",
    "date": "2025-11-07",
    "timeSlot": "2pm",
    "customerName": "Christopher Harris",
    "customerPhone": "555-316-5784",
    "customerEmail": "christopher.harris@email.com",
    "address": {
      "street": "8842 Maple Dr",
      "city": "Albany",
      "state": "Ga",
      "zip": "31605",
      "lat": 33.632851764477586,
      "lng": -84.30696589752435
    },
    "status": "scheduled",
    "createdAt": "2025-11-02T06:01:29.045Z"
  },
  {
    "id": "apt-1762470515198-170",
    "repId": "rep81",
    "date": "2025-11-07",
    "timeSlot": "7pm",
    "customerName": "Lauren Allen",
    "customerPhone": "555-287-7717",
    "customerEmail": "lauren.allen@email.com",
    "address": {
      "street": "2753 Pine St",
      "city": "Albany",
      "state": "Ga",
      "zip": "31605",
      "lat": 33.58321085635687,
      "lng": -84.32514051308829
    },
    "status": "scheduled",
    "createdAt": "2025-10-19T10:18:26.759Z"
  },
  {
    "id": "apt-1762470515198-171",
    "repId": "rep82",
    "date": "2025-11-07",
    "timeSlot": "7pm",
    "customerName": "Amanda Garcia",
    "customerPhone": "478-978-6537",
    "customerEmail": "amanda.garcia@email.com",
    "address": {
      "street": "5708 Elm St",
      "city": "Johns Creek",
      "state": "GA",
      "zip": "30097",
      "lat": 33.5115244977579,
      "lng": -84.55503095904577
    },
    "status": "scheduled",
    "createdAt": "2025-10-12T19:49:21.632Z"
  },
  {
    "id": "apt-1762470515198-172",
    "repId": "rep83",
    "date": "2025-11-07",
    "timeSlot": "7pm",
    "customerName": "Lisa Brown",
    "customerPhone": "555-776-3936",
    "customerEmail": "lisa.brown@email.com",
    "address": {
      "street": "3784 Oak Ave",
      "city": "Birmingham",
      "state": "Al",
      "zip": "36110",
      "lat": 33.896436263238996,
      "lng": -84.59053284709331
    },
    "status": "scheduled",
    "createdAt": "2025-10-08T19:27:50.503Z"
  },
  {
    "id": "apt-1762470515198-173",
    "repId": "rep84",
    "date": "2025-11-07",
    "timeSlot": "10am",
    "customerName": "Sarah Johnson",
    "customerPhone": "555-365-8557",
    "customerEmail": "sarah.johnson@email.com",
    "address": {
      "street": "5750 Pine St",
      "city": "Sicklerville",
      "state": "NJ",
      "zip": "08081",
      "lat": 39.88520010576683,
      "lng": -74.63388882039753
    },
    "status": "scheduled",
    "createdAt": "2025-11-03T06:01:07.537Z"
  },
  {
    "id": "apt-1762470515199-174",
    "repId": "rep85",
    "date": "2025-11-07",
    "timeSlot": "2pm",
    "customerName": "Mike Davis",
    "customerPhone": "601-618-8722",
    "customerEmail": "mike.davis@email.com",
    "address": {
      "street": "7375 Elm St",
      "city": "Columbus",
      "state": "MS",
      "zip": "39701",
      "lat": 32.217187893274904,
      "lng": -90.01677464142912
    },
    "status": "scheduled",
    "createdAt": "2025-10-17T23:07:47.736Z"
  },
  {
    "id": "apt-1762470515199-175",
    "repId": "rep86",
    "date": "2025-11-07",
    "timeSlot": "2pm",
    "customerName": "Ashley Clark",
    "customerPhone": "281-339-9631",
    "customerEmail": "ashley.clark@email.com",
    "address": {
      "street": "8063 Oak Ave",
      "city": "Tyler",
      "state": "TX",
      "zip": "75703",
      "lat": 32.57972386244875,
      "lng": -96.89727977541553
    },
    "status": "scheduled",
    "createdAt": "2025-10-29T20:36:52.806Z"
  },
  {
    "id": "apt-1762470515199-176",
    "repId": "rep86",
    "date": "2025-11-07",
    "timeSlot": "7pm",
    "customerName": "Mike Davis",
    "customerPhone": "512-579-9031",
    "customerEmail": "mike.davis@email.com",
    "address": {
      "street": "3597 Oak Ave",
      "city": "Tyler",
      "state": "TX",
      "zip": "75703",
      "lat": 32.56016056509143,
      "lng": -96.85912401390375
    },
    "status": "scheduled",
    "createdAt": "2025-10-11T22:05:20.079Z"
  },
  {
    "id": "apt-1762470515199-177",
    "repId": "rep88",
    "date": "2025-11-07",
    "timeSlot": "10am",
    "customerName": "Eric Rodriguez",
    "customerPhone": "580-848-9846",
    "customerEmail": "eric.rodriguez@email.com",
    "address": {
      "street": "7866 Main St",
      "city": "Oklahoma City",
      "state": "OK",
      "zip": "73134",
      "lat": 35.54250610673688,
      "lng": -97.56430934640986
    },
    "status": "scheduled",
    "createdAt": "2025-10-19T09:36:04.263Z"
  },
  {
    "id": "apt-1762470515199-178",
    "repId": "rep88",
    "date": "2025-11-07",
    "timeSlot": "2pm",
    "customerName": "Sarah Johnson",
    "customerPhone": "580-370-8388",
    "customerEmail": "sarah.johnson@email.com",
    "address": {
      "street": "9938 Park Blvd",
      "city": "Oklahoma City",
      "state": "OK",
      "zip": "73134",
      "lat": 35.52245988501834,
      "lng": -97.65378248891585
    },
    "status": "scheduled",
    "createdAt": "2025-10-17T14:34:48.464Z"
  },
  {
    "id": "apt-1762470515199-179",
    "repId": "rep89",
    "date": "2025-11-07",
    "timeSlot": "10am",
    "customerName": "Christopher Harris",
    "customerPhone": "601-929-4171",
    "customerEmail": "christopher.harris@email.com",
    "address": {
      "street": "162 Park Blvd",
      "city": "Southaven",
      "state": "MS",
      "zip": "38671",
      "lat": 32.06619478187602,
      "lng": -90.05660694035011
    },
    "status": "scheduled",
    "createdAt": "2025-10-09T10:18:04.052Z"
  },
  {
    "id": "apt-1762470515199-180",
    "repId": "rep89",
    "date": "2025-11-07",
    "timeSlot": "7pm",
    "customerName": "Jason Turner",
    "customerPhone": "662-404-6366",
    "customerEmail": "jason.turner@email.com",
    "address": {
      "street": "7460 Pine St",
      "city": "Southaven",
      "state": "MS",
      "zip": "38671",
      "lat": 32.12652110314232,
      "lng": -90.07156303505829
    },
    "status": "scheduled",
    "createdAt": "2025-10-21T02:37:52.495Z"
  },
  {
    "id": "apt-1762470515199-181",
    "repId": "rep92",
    "date": "2025-11-07",
    "timeSlot": "10am",
    "customerName": "Lauren Allen",
    "customerPhone": "769-848-3924",
    "customerEmail": "lauren.allen@email.com",
    "address": {
      "street": "8774 Cedar Ln",
      "city": "Greenville",
      "state": "MS",
      "zip": "38701",
      "lat": 32.099438814368824,
      "lng": -90.2584159701598
    },
    "status": "scheduled",
    "createdAt": "2025-11-05T09:42:15.205Z"
  },
  {
    "id": "apt-1762470515199-182",
    "repId": "rep93",
    "date": "2025-11-07",
    "timeSlot": "2pm",
    "customerName": "Christopher Harris",
    "customerPhone": "601-409-4329",
    "customerEmail": "christopher.harris@email.com",
    "address": {
      "street": "4758 Pine St",
      "city": "Pearl",
      "state": "MS",
      "zip": "39208",
      "lat": 32.3165213213216,
      "lng": -90.288888116277
    },
    "status": "scheduled",
    "createdAt": "2025-10-22T07:42:48.086Z"
  },
  {
    "id": "apt-1762470515199-183",
    "repId": "rep93",
    "date": "2025-11-07",
    "timeSlot": "7pm",
    "customerName": "Jennifer Martinez",
    "customerPhone": "228-583-5457",
    "customerEmail": "jennifer.martinez@email.com",
    "address": {
      "street": "8720 Main St",
      "city": "Pearl",
      "state": "MS",
      "zip": "39208",
      "lat": 32.298557124584846,
      "lng": -90.23686025951567
    },
    "status": "scheduled",
    "createdAt": "2025-10-14T04:50:26.038Z"
  },
  {
    "id": "apt-1762470515199-184",
    "repId": "rep94",
    "date": "2025-11-07",
    "timeSlot": "10am",
    "customerName": "Jessica Moore",
    "customerPhone": "769-290-5431",
    "customerEmail": "jessica.moore@email.com",
    "address": {
      "street": "9269 Oak Ave",
      "city": "Pearl",
      "state": "MS",
      "zip": "39208",
      "lat": 32.47900176643242,
      "lng": -90.4615924890048
    },
    "status": "scheduled",
    "createdAt": "2025-10-23T22:36:18.711Z"
  },
  {
    "id": "apt-1762470515199-185",
    "repId": "rep95",
    "date": "2025-11-07",
    "timeSlot": "7pm",
    "customerName": "Robert Taylor",
    "customerPhone": "225-894-7723",
    "customerEmail": "robert.taylor@email.com",
    "address": {
      "street": "3132 Maple Dr",
      "city": "Shreveport",
      "state": "LA",
      "zip": "71101",
      "lat": 30.508534898309943,
      "lng": -91.2774224916884
    },
    "status": "scheduled",
    "createdAt": "2025-11-04T21:47:52.852Z"
  },
  {
    "id": "apt-1762470515199-186",
    "repId": "rep96",
    "date": "2025-11-07",
    "timeSlot": "10am",
    "customerName": "Brandon White",
    "customerPhone": "662-367-8215",
    "customerEmail": "brandon.white@email.com",
    "address": {
      "street": "8897 Elm St",
      "city": "Southaven",
      "state": "MS",
      "zip": "38671",
      "lat": 32.52263371671847,
      "lng": -90.24334880818334
    },
    "status": "scheduled",
    "createdAt": "2025-10-11T07:01:23.053Z"
  },
  {
    "id": "apt-1762470515199-187",
    "repId": "rep98",
    "date": "2025-11-07",
    "timeSlot": "10am",
    "customerName": "Matthew Hall",
    "customerPhone": "417-635-4309",
    "customerEmail": "matthew.hall@email.com",
    "address": {
      "street": "7196 Elm St",
      "city": "Kansas City",
      "state": "MO",
      "zip": "64117",
      "lat": 38.85809381965432,
      "lng": -89.97314129253002
    },
    "status": "scheduled",
    "createdAt": "2025-11-03T12:13:33.411Z"
  },
  {
    "id": "apt-1762470515199-188",
    "repId": "rep5",
    "date": "2025-11-08",
    "timeSlot": "2pm",
    "customerName": "Kimberly Crump",
    "customerPhone": "501-997-7452",
    "customerEmail": "kimberly.crump@email.com",
    "address": {
      "street": "5348 Maple Dr",
      "city": "RUSSELLVILLE",
      "state": "AR",
      "zip": "72802",
      "lat": 34.968460820057814,
      "lng": -92.31223466534323
    },
    "status": "scheduled",
    "createdAt": "2025-10-24T00:49:50.111Z"
  },
  {
    "id": "apt-1762470515199-189",
    "repId": "rep17",
    "date": "2025-11-08",
    "timeSlot": "2pm",
    "customerName": "Kimberly Crump",
    "customerPhone": "629-831-6210",
    "customerEmail": "kimberly.crump@email.com",
    "address": {
      "street": "9243 Park Blvd",
      "city": "BARTLETT",
      "state": "TN",
      "zip": "38135",
      "lat": 36.32454242479484,
      "lng": -86.82646850906409
    },
    "status": "scheduled",
    "createdAt": "2025-10-28T06:08:00.200Z"
  },
  {
    "id": "apt-1762470515199-190",
    "repId": "rep38",
    "date": "2025-11-08",
    "timeSlot": "10am",
    "customerName": "Brian Wright",
    "customerPhone": "662-781-3027",
    "customerEmail": "brian.wright@email.com",
    "address": {
      "street": "3861 Main St",
      "city": "Raymond",
      "state": "MS",
      "zip": "39154",
      "lat": 32.45104712189057,
      "lng": -90.2570566276373
    },
    "status": "scheduled",
    "createdAt": "2025-11-02T05:26:13.613Z"
  },
  {
    "id": "apt-1762470515199-191",
    "repId": "rep40",
    "date": "2025-11-08",
    "timeSlot": "10am",
    "customerName": "Ashley Clark",
    "customerPhone": "601-746-1543",
    "customerEmail": "ashley.clark@email.com",
    "address": {
      "street": "6804 Elm St",
      "city": "Olive Branch",
      "state": "MS",
      "zip": "38654",
      "lat": 32.17939924144975,
      "lng": -90.40280987465032
    },
    "status": "scheduled",
    "createdAt": "2025-10-14T15:04:54.142Z"
  },
  {
    "id": "apt-1762470515199-192",
    "repId": "rep52",
    "date": "2025-11-08",
    "timeSlot": "10am",
    "customerName": "Matthew Hall",
    "customerPhone": "615-875-4732",
    "customerEmail": "matthew.hall@email.com",
    "address": {
      "street": "2864 Park Blvd",
      "city": "Memphis",
      "state": "TN",
      "zip": "38103",
      "lat": 36.109281743541274,
      "lng": -86.70203132039771
    },
    "status": "scheduled",
    "createdAt": "2025-10-09T02:32:04.152Z"
  },
  {
    "id": "apt-1762470515199-193",
    "repId": "rep58",
    "date": "2025-11-08",
    "timeSlot": "2pm",
    "customerName": "Kevin Brown",
    "customerPhone": "479-745-7138",
    "customerEmail": "kevin.brown@email.com",
    "address": {
      "street": "1336 Pine St",
      "city": "Royal",
      "state": "AR",
      "zip": "71968",
      "lat": 34.79248281998572,
      "lng": -92.19317824414007
    },
    "status": "scheduled",
    "createdAt": "2025-10-09T07:30:58.397Z"
  },
  {
    "id": "apt-1762470515199-194",
    "repId": "rep61",
    "date": "2025-11-08",
    "timeSlot": "10am",
    "customerName": "Kimberly Crump",
    "customerPhone": "501-267-6378",
    "customerEmail": "kimberly.crump@email.com",
    "address": {
      "street": "212 Park Blvd",
      "city": "Bentonville",
      "state": "AR",
      "zip": "72712",
      "lat": 34.588964391381225,
      "lng": -92.37507659071883
    },
    "status": "scheduled",
    "createdAt": "2025-11-03T07:47:04.794Z"
  },
  {
    "id": "apt-1762470515199-195",
    "repId": "rep65",
    "date": "2025-11-08",
    "timeSlot": "2pm",
    "customerName": "Matthew Hall",
    "customerPhone": "972-678-0550",
    "customerEmail": "matthew.hall@email.com",
    "address": {
      "street": "8588 Pine St",
      "city": "Houston",
      "state": "TX",
      "zip": "77069",
      "lat": 32.77612518385634,
      "lng": -96.68948451792266
    },
    "status": "scheduled",
    "createdAt": "2025-11-01T05:09:37.577Z"
  },
  {
    "id": "apt-1762470515199-196",
    "repId": "rep66",
    "date": "2025-11-08",
    "timeSlot": "10am",
    "customerName": "Mike Davis",
    "customerPhone": "956-447-6965",
    "customerEmail": "mike.davis@email.com",
    "address": {
      "street": "9335 Elm St",
      "city": "Tyler",
      "state": "TX",
      "zip": "75709",
      "lat": 33.00910937776679,
      "lng": -96.78677833522056
    },
    "status": "scheduled",
    "createdAt": "2025-10-10T04:01:47.387Z"
  },
  {
    "id": "apt-1762470515199-197",
    "repId": "rep70",
    "date": "2025-11-08",
    "timeSlot": "10am",
    "customerName": "Samantha Lee",
    "customerPhone": "731-700-0516",
    "customerEmail": "samantha.lee@email.com",
    "address": {
      "street": "5398 Elm St",
      "city": "Millington",
      "state": "TN",
      "zip": "38053",
      "lat": 36.19655879975933,
      "lng": -86.71092041262945
    },
    "status": "scheduled",
    "createdAt": "2025-10-29T18:28:56.467Z"
  },
  {
    "id": "apt-1762470515199-198",
    "repId": "rep70",
    "date": "2025-11-08",
    "timeSlot": "2pm",
    "customerName": "Kevin Brown",
    "customerPhone": "731-246-3600",
    "customerEmail": "kevin.brown@email.com",
    "address": {
      "street": "7730 Oak Ave",
      "city": "Millington",
      "state": "TN",
      "zip": "38053",
      "lat": 36.109050959966865,
      "lng": -86.67479540233055
    },
    "status": "scheduled",
    "createdAt": "2025-11-02T18:07:51.893Z"
  },
  {
    "id": "apt-1762470515199-199",
    "repId": "rep74",
    "date": "2025-11-08",
    "timeSlot": "2pm",
    "customerName": "Melissa Scott",
    "customerPhone": "214-380-2864",
    "customerEmail": "melissa.scott@email.com",
    "address": {
      "street": "8603 Elm St",
      "city": "Conroe",
      "state": "TX",
      "zip": "77384",
      "lat": 32.603027654176515,
      "lng": -96.86900637972428
    },
    "status": "scheduled",
    "createdAt": "2025-10-29T21:40:31.130Z"
  },
  {
    "id": "apt-1762470515199-200",
    "repId": "rep5",
    "date": "2025-11-10",
    "timeSlot": "10am",
    "customerName": "Sarah Johnson",
    "customerPhone": "501-890-3647",
    "customerEmail": "sarah.johnson@email.com",
    "address": {
      "street": "9981 Cedar Ln",
      "city": "RUSSELLVILLE",
      "state": "AR",
      "zip": "72802",
      "lat": 34.941366094672894,
      "lng": -92.33863082941521
    },
    "status": "scheduled",
    "createdAt": "2025-10-14T08:34:25.772Z"
  },