[
  {
    "id": "apt-1762471017999-0",
    "repId": "rep1",
    "date": "2025-11-06",
    "timeSlot": "10am",
    "customerName": "Kevin Brown",
    "customerPhone": "770-638-7141",
    "customerEmail": "kevin.brown@email.com",
    "address": {
      "street": "9075 Park Blvd",
      "city": "KENNESAW",
      "state": "GA",
      "zip": "30144",
      "lat": 33.802610788301465,
      "lng": -84.30635002381254
    },
    "status": "scheduled",
    "createdAt": "2025-10-28T07:45:42.381Z"
  },
  {
    "id": "apt-1762471018000-1",
    "repId": "rep1",
    "date": "2025-11-06",
    "timeSlot": "7pm",
    "customerName": "Stephanie King",
    "customerPhone": "762-756-9324",
    "customerEmail": "stephanie.king@email.com",
    "address": {
      "street": "8865 Pine St",
      "city": "KENNESAW",
      "state": "GA",
      "zip": "30144",
      "lat": 33.81381396320328,
      "lng": -84.31704059911144
    },
    "status": "scheduled",
    "createdAt": "2025-10-24T16:19:33.787Z"
  },
  {
    "id": "apt-1762471018000-2",
    "repId": "rep3",
    "date": "2025-11-06",
    "timeSlot": "10am",
    "customerName": "Daniel Lewis",
    "customerPhone": "470-930-7323",
    "customerEmail": "daniel.lewis@email.com",
    "address": {
      "street": "4631 Oak Ave",
      "city": "Douglasville",
      "state": "GA",
      "zip": "30135",
      "lat": 33.940648051000075,
      "lng": -84.28505438017137
    },
    "status": "scheduled",
    "createdAt": "2025-11-04T14:14:30.771Z"
  },
  {
    "id": "apt-1762471018000-3",
    "repId": "rep4",
    "date": "2025-11-06",
    "timeSlot": "10am",
    "customerName": "Brandon White",
    "customerPhone": "432-346-6911",
    "customerEmail": "brandon.white@email.com",
    "address": {
      "street": "3239 Main St",
      "city": "COPPELL",
      "state": "TX",
      "zip": "75019",
      "lat": 32.8154539079899,
      "lng": -96.68683342020461
    },
    "status": "scheduled",
    "createdAt": "2025-11-04T14:55:46.853Z"
  },
  {
    "id": "apt-1762471018000-4",
    "repId": "rep5",
    "date": "2025-11-06",
    "timeSlot": "2pm",
    "customerName": "Emily White",
    "customerPhone": "479-368-5150",
    "customerEmail": "emily.white@email.com",
    "address": {
      "street": "3473 Cedar Ln",
      "city": "RUSSELLVILLE",
      "state": "AR",
      "zip": "72802",
      "lat": 34.99603615565114,
      "lng": -92.28433597112965
    },
    "status": "scheduled",
    "createdAt": "2025-11-04T22:32:06.957Z"
  },
  {
    "id": "apt-1762471018000-5",
    "repId": "rep6",
    "date": "2025-11-06",
    "timeSlot": "2pm",
    "customerName": "Robert Taylor",
    "customerPhone": "228-908-9310",
    "customerEmail": "robert.taylor@email.com",
    "address": {
      "street": "1288 Maple Dr",
      "city": "HORN LAKE",
      "state": "MS",
      "zip": "38637",
      "lat": 32.07444477130432,
      "lng": -90.1568621263279
    },
    "status": "scheduled",
    "createdAt": "2025-11-04T13:07:02.893Z"
  },
  {
    "id": "apt-1762471018000-6",
    "repId": "rep6",
    "date": "2025-11-06",
    "timeSlot": "7pm",
    "customerName": "James Anderson",
    "customerPhone": "228-742-7007",
    "customerEmail": "james.anderson@email.com",
    "address": {
      "street": "7450 Maple Dr",
      "city": "HORN LAKE",
      "state": "MS",
      "zip": "38637",
      "lat": 32.05991578429769,
      "lng": -90.14339927320508
    },
    "status": "scheduled",
    "createdAt": "2025-10-26T03:09:21.940Z"
  },
  {
    "id": "apt-1762471018000-7",
    "repId": "rep7",
    "date": "2025-11-06",
    "timeSlot": "10am",
    "customerName": "Eric Rodriguez",
    "customerPhone": "334-653-2101",
    "customerEmail": "eric.rodriguez@email.com",
    "address": {
      "street": "9991 Pine St",
      "city": "Alabaster",
      "state": "AL",
      "zip": "35114",
      "lat": 33.30266446417701,
      "lng": -86.56924135925048
    },
    "status": "scheduled",
    "createdAt": "2025-10-19T12:38:07.179Z"
  },
  {
    "id": "apt-1762471018000-8",
    "repId": "rep7",
    "date": "2025-11-06",
    "timeSlot": "2pm",
    "customerName": "Daniel Lewis",
    "customerPhone": "256-342-7167",
    "customerEmail": "daniel.lewis@email.com",
    "address": {
      "street": "5227 Pine St",
      "city": "Alabaster",
      "state": "AL",
      "zip": "35114",
      "lat": 33.27113306305642,
      "lng": -86.5959452770345
    },
    "status": "scheduled",
    "createdAt": "2025-11-05T00:30:53.201Z"
  },
  {
    "id": "apt-1762471018000-9",
    "repId": "rep8",
    "date": "2025-11-06",
    "timeSlot": "10am",
    "customerName": "Brian Wright",
    "customerPhone": "762-613-7428",
    "customerEmail": "brian.wright@email.com",
    "address": {
      "street": "161 Pine St",
      "city": "FAYETTEVILLE",
      "state": "GA",
      "zip": "30214",
      "lat": 33.852529863961884,
      "lng": -84.49055871779642
    },
    "status": "scheduled",
    "createdAt": "2025-10-17T21:14:35.418Z"
  },
  {
    "id": "apt-1762471018000-10",
    "repId": "rep8",
    "date": "2025-11-06",
    "timeSlot": "2pm",
    "customerName": "Nicole Green",
    "customerPhone": "678-381-7996",
    "customerEmail": "nicole.green@email.com",
    "address": {
      "street": "7165 Park Blvd",
      "city": "FAYETTEVILLE",
      "state": "GA",
      "zip": "30214",
      "lat": 33.87843073520155,
      "lng": -84.54880552798295
    },
    "status": "scheduled",
    "createdAt": "2025-11-03T09:52:06.772Z"
  },
  {
    "id": "apt-1762471018000-11",
    "repId": "rep9",
    "date": "2025-11-06",
    "timeSlot": "10am",
    "customerName": "Joshua Young",
    "customerPhone": "404-990-3828",
    "customerEmail": "joshua.young@email.com",
    "address": {
      "street": "5211 Oak Ave",
      "city": "SOUTH FULTON",
      "state": "GA",
      "zip": "30349",
      "lat": 34.010591970434085,
      "lng": -84.18339637542768
    },
    "status": "scheduled",
    "createdAt": "2025-11-01T22:37:35.207Z"
  },
  {
    "id": "apt-1762471018000-12",
    "repId": "rep10",
    "date": "2025-11-06",
    "timeSlot": "2pm",
    "customerName": "Jennifer Martinez",
    "customerPhone": "762-373-1672",
    "customerEmail": "jennifer.martinez@email.com",
    "address": {
      "street": "4442 Main St",
      "city": "NEWMAN",
      "state": "GA",
      "zip": "30265",
      "lat": 33.9325428819431,
      "lng": -84.17360528767716
    },
    "status": "scheduled",
    "createdAt": "2025-10-17T01:58:36.184Z"
  },
  {
    "id": "apt-1762471018000-13",
    "repId": "rep10",
    "date": "2025-11-06",
    "timeSlot": "7pm",
    "customerName": "Jason Turner",
    "customerPhone": "678-622-2226",
    "customerEmail": "jason.turner@email.com",
    "address": {
      "street": "6148 Oak Ave",
      "city": "NEWMAN",
      "state": "GA",
      "zip": "30265",
      "lat": 33.89082711276249,
      "lng": -84.11814092982134
    },
    "status": "scheduled",
    "createdAt": "2025-10-28T21:50:49.649Z"
  },
  {
    "id": "apt-1762471018000-14",
    "repId": "rep11",
    "date": "2025-11-06",
    "timeSlot": "2pm",
    "customerName": "Michael Thompson",
    "customerPhone": "956-506-1181",
    "customerEmail": "michael.thompson@email.com",
    "address": {
      "street": "10028 Park Blvd",
      "city": "Houston",
      "state": "TX",
      "zip": "77090",
      "lat": 32.76423652607821,
      "lng": -96.78970290108388
    },
    "status": "scheduled",
    "createdAt": "2025-11-02T02:01:10.883Z"
  },
  {
    "id": "apt-1762471018000-15",
    "repId": "rep12",
    "date": "2025-11-06",
    "timeSlot": "10am",
    "customerName": "Mike Davis",
    "customerPhone": "256-911-1159",
    "customerEmail": "mike.davis@email.com",
    "address": {
      "street": "7273 Maple Dr",
      "city": "Talladega",
      "state": "AL",
      "zip": "35160",
      "lat": 33.280101988039846,
      "lng": -86.62086425826479
    },
    "status": "scheduled",
    "createdAt": "2025-10-22T20:43:41.117Z"
  },
  {
    "id": "apt-1762471018000-16",
    "repId": "rep13",
    "date": "2025-11-06",
    "timeSlot": "7pm",
    "customerName": "Mike Davis",
    "customerPhone": "252-636-5997",
    "customerEmail": "mike.davis@email.com",
    "address": {
      "street": "4870 Oak Ave",
      "city": "GRAHAM",
      "state": "NC",
      "zip": "27253",
      "lat": 35.25256348684921,
      "lng": -80.71619027346998
    },
    "status": "scheduled",
    "createdAt": "2025-10-24T03:30:28.526Z"
  },
  {
    "id": "apt-1762471018000-17",
    "repId": "rep15",
    "date": "2025-11-06",
    "timeSlot": "10am",
    "customerName": "Lisa Brown",
    "customerPhone": "478-246-6101",
    "customerEmail": "lisa.brown@email.com",
    "address": {
      "street": "1402 Oak Ave",
      "city": "SYLVESTER",
      "state": "GA",
      "zip": "31791",
      "lat": 33.673666006465176,
      "lng": -84.590673665054
    },
    "status": "scheduled",
    "createdAt": "2025-11-03T15:41:10.485Z"
  },
  {
    "id": "apt-1762471018000-18",
    "repId": "rep15",
    "date": "2025-11-06",
    "timeSlot": "7pm",
    "customerName": "Brandon White",
    "customerPhone": "404-340-4352",
    "customerEmail": "brandon.white@email.com",
    "address": {
      "street": "6338 Elm St",
      "city": "SYLVESTER",
      "state": "GA",
      "zip": "31791",
      "lat": 33.60841264435596,
      "lng": -84.58383818391678
    },
    "status": "scheduled",
    "createdAt": "2025-10-24T12:21:28.713Z"
  },
  {
    "id": "apt-1762471018000-19",
    "repId": "rep17",
    "date": "2025-11-06",
    "timeSlot": "10am",
    "customerName": "Jennifer Martinez",
    "customerPhone": "629-287-6281",
    "customerEmail": "jennifer.martinez@email.com",
    "address": {
      "street": "8439 Cedar Ln",
      "city": "BARTLETT",
      "state": "TN",
      "zip": "38135",
      "lat": 36.28279867412972,
      "lng": -86.84182759682129
    },
    "status": "scheduled",
    "createdAt": "2025-10-17T06:04:03.080Z"
  },
  {
    "id": "apt-1762471018000-20",
    "repId": "rep17",
    "date": "2025-11-06",
    "timeSlot": "7pm",
    "customerName": "Michael Thompson",
    "customerPhone": "931-582-1996",
    "customerEmail": "michael.thompson@email.com",
    "address": {
      "street": "9568 Main St",
      "city": "BARTLETT",
      "state": "TN",
      "zip": "38135",
      "lat": 36.29199896929347,
      "lng": -86.79555864548855
    },
    "status": "scheduled",
    "createdAt": "2025-10-24T22:24:20.542Z"
  },
  {
    "id": "apt-1762471018000-21",
    "repId": "rep18",
    "date": "2025-11-06",
    "timeSlot": "2pm",
    "customerName": "Angela Martinez",
    "customerPhone": "469-853-0012",
    "customerEmail": "angela.martinez@email.com",
    "address": {
      "street": "967 Maple Dr",
      "city": "Houston",
      "state": "TX",
      "zip": "77002",
      "lat": 32.97799124281283,
      "lng": -96.84758963094585
    },
    "status": "scheduled",
    "createdAt": "2025-10-19T12:29:46.691Z"
  },
  {
    "id": "apt-1762471018000-22",
    "repId": "rep24",
    "date": "2025-11-06",
    "timeSlot": "7pm",
    "customerName": "Angela Martinez",
    "customerPhone": "251-833-8638",
    "customerEmail": "angela.martinez@email.com",
    "address": {
      "street": "5787 Oak Ave",
      "city": "Saraland",
      "state": "AL",
      "zip": "36571",
      "lat": 33.599575713886054,
      "lng": -86.60873224446304
    },
    "status": "scheduled",
    "createdAt": "2025-10-25T04:36:11.047Z"
  },
  {
    "id": "apt-1762471018000-23",
    "repId": "rep25",
    "date": "2025-11-06",
    "timeSlot": "10am",
    "customerName": "Melissa Scott",
    "customerPhone": "678-508-2955",
    "customerEmail": "melissa.scott@email.com",
    "address": {
      "street": "5425 Pine St",
      "city": "Macon",
      "state": "GA",
      "zip": "31210",
      "lat": 33.64937637336161,
      "lng": -84.36658981315956
    },
    "status": "scheduled",
    "createdAt": "2025-10-29T10:21:35.669Z"
  },
  {
    "id": "apt-1762471018000-24",
    "repId": "rep26",
    "date": "2025-11-06",
    "timeSlot": "10am",
    "customerName": "Amanda Garcia",
    "customerPhone": "229-475-7762",
    "customerEmail": "amanda.garcia@email.com",
    "address": {
      "street": "1287 Cedar Ln",
      "city": "McDonough",
      "state": "GA",
      "zip": "30252",
      "lat": 33.804492002172154,
      "lng": -84.36790046525336
    },
    "status": "scheduled",
    "createdAt": "2025-10-25T04:56:02.721Z"
  },
  {
    "id": "apt-1762471018000-25",
    "repId": "rep27",
    "date": "2025-11-06",
    "timeSlot": "10am",
    "customerName": "Rachel Adams",
    "customerPhone": "979-394-5688",
    "customerEmail": "rachel.adams@email.com",
    "address": {
      "street": "8074 Main St",
      "city": "Dallas",
      "state": "TX",
      "zip": "75248",
      "lat": 32.553517789910785,
      "lng": -96.79903170261747
    },
    "status": "scheduled",
    "createdAt": "2025-10-21T15:05:00.442Z"
  },
  {
    "id": "apt-1762471018000-26",
    "repId": "rep29",
    "date": "2025-11-06",
    "timeSlot": "10am",
    "customerName": "Eric Rodriguez",
    "customerPhone": "470-883-7089",
    "customerEmail": "eric.rodriguez@email.com",
    "address": {
      "street": "198 Main St",
      "city": "Albany",
      "state": "GA",
      "zip": "31705",
      "lat": 33.70095610152272,
      "lng": -84.220742602083
    },
    "status": "scheduled",
    "createdAt": "2025-11-03T10:42:23.544Z"
  },
  {
    "id": "apt-1762471018000-27",
    "repId": "rep31",
    "date": "2025-11-06",
    "timeSlot": "10am",
    "customerName": "Angela Martinez",
    "customerPhone": "615-559-3232",
    "customerEmail": "angela.martinez@email.com",
    "address": {
      "street": "3188 Oak Ave",
      "city": "Memphis",
      "state": "TN",
      "zip": "38125",
      "lat": 35.98009518572384,
      "lng": -86.8918470206292
    },
    "status": "scheduled",
    "createdAt": "2025-10-21T11:40:26.119Z"
  },
  {
    "id": "apt-1762471018000-28",
    "repId": "rep33",
    "date": "2025-11-06",
    "timeSlot": "2pm",
    "customerName": "Lisa Brown",
    "customerPhone": "865-492-9579",
    "customerEmail": "lisa.brown@email.com",
    "address": {
      "street": "9999 Pine St",
      "city": "Atoka",
      "state": "TN",
      "zip": "38004",
      "lat": 36.16712482080955,
      "lng": -87.03110217958499
    },
    "status": "scheduled",
    "createdAt": "2025-10-26T16:52:04.496Z"
  },
  {
    "id": "apt-1762471018000-29",
    "repId": "rep37",
    "date": "2025-11-06",
    "timeSlot": "10am",
    "customerName": "Kimberly Crump",
    "customerPhone": "615-678-0707",
    "customerEmail": "kimberly.crump@email.com",
    "address": {
      "street": "2139 Park Blvd",
      "city": "Memphis",
      "state": "TN",
      "zip": "38119",
      "lat": 36.37360707663911,
      "lng": -86.7523208356033
    },
    "status": "scheduled",
    "createdAt": "2025-10-31T20:36:19.187Z"
  },
  {
    "id": "apt-1762471018000-30",
    "repId": "rep37",
    "date": "2025-11-06",
    "timeSlot": "2pm",
    "customerName": "Robert Taylor",
    "customerPhone": "731-647-2741",
    "customerEmail": "robert.taylor@email.com",
    "address": {
      "street": "7923 Main St",
      "city": "Memphis",
      "state": "TN",
      "zip": "38119",
      "lat": 36.35153537894152,
      "lng": -86.70081290165244
    },
    "status": "scheduled",
    "createdAt": "2025-10-21T15:41:27.892Z"
  },
  {
    "id": "apt-1762471018000-31",
    "repId": "rep37",
    "date": "2025-11-06",
    "timeSlot": "7pm",
    "customerName": "Robert Taylor",
    "customerPhone": "629-523-5144",
    "customerEmail": "robert.taylor@email.com",
    "address": {
      "street": "4932 Park Blvd",
      "city": "Memphis",
      "state": "TN",
      "zip": "38119",
      "lat": 36.357611851077586,
      "lng": -86.7345491225201
    },
    "status": "scheduled",
    "createdAt": "2025-10-17T08:07:32.675Z"
  },
  {
    "id": "apt-1762471018000-32",
    "repId": "rep38",
    "date": "2025-11-06",
    "timeSlot": "10am",
    "customerName": "Ryan Mitchell",
    "customerPhone": "662-286-8539",
    "customerEmail": "ryan.mitchell@email.com",
    "address": {
      "street": "5091 Pine St",
      "city": "Raymond",
      "state": "MS",
      "zip": "39154",
      "lat": 32.38999400058081,
      "lng": -90.23352456794423
    },
    "status": "scheduled",
    "createdAt": "2025-10-30T03:39:30.983Z"
  },
  {
    "id": "apt-1762471018000-33",
    "repId": "rep39",
    "date": "2025-11-06",
    "timeSlot": "2pm",
    "customerName": "Robert Taylor",
    "customerPhone": "228-892-3838",
    "customerEmail": "robert.taylor@email.com",
    "address": {
      "street": "6005 Main St",
      "city": "Olive Branch",
      "state": "MS",
      "zip": "38654",
      "lat": 32.1807346357676,
      "lng": -89.9837990215943
    },
    "status": "scheduled",
    "createdAt": "2025-10-30T09:03:47.159Z"
  },
  {
    "id": "apt-1762471018000-34",
    "repId": "rep42",
    "date": "2025-11-06",
    "timeSlot": "7pm",
    "customerName": "Eric Rodriguez",
    "customerPhone": "251-444-4266",
    "customerEmail": "eric.rodriguez@email.com",
    "address": {
      "street": "3646 Cedar Ln",
      "city": "Theodore",
      "state": "AL",
      "zip": "36582",
      "lat": 33.471221170304574,
      "lng": -86.8937406248666
    },
    "status": "scheduled",
    "createdAt": "2025-10-23T23:10:38.793Z"
  },
  {
    "id": "apt-1762471018000-35",
    "repId": "rep43",
    "date": "2025-11-06",
    "timeSlot": "2pm",
    "customerName": "Ashley Clark",
    "customerPhone": "864-485-4822",
    "customerEmail": "ashley.clark@email.com",
    "address": {
      "street": "2926 Main St",
      "city": "North Augusta",
      "state": "SC",
      "zip": "29860",
      "lat": 33.95953890952926,
      "lng": -80.84280148681208
    },
    "status": "scheduled",
    "createdAt": "2025-10-21T14:41:59.100Z"
  },
  {
    "id": "apt-1762471018000-36",
    "repId": "rep45",
    "date": "2025-11-06",
    "timeSlot": "7pm",
    "customerName": "James Anderson",
    "customerPhone": "281-435-3857",
    "customerEmail": "james.anderson@email.com",
    "address": {
      "street": "4557 Elm St",
      "city": "Anna",
      "state": "TX",
      "zip": "75409",
      "lat": 32.767153815501665,
      "lng": -97.06214825826257
    },
    "status": "scheduled",
    "createdAt": "2025-11-03T15:36:08.912Z"
  },
  {
    "id": "apt-1762471018000-37",
    "repId": "rep47",
    "date": "2025-11-06",
    "timeSlot": "10am",
    "customerName": "Joshua Young",
    "customerPhone": "281-510-7505",
    "customerEmail": "joshua.young@email.com",
    "address": {
      "street": "5667 Main St",
      "city": "Coppell",
      "state": "TX",
      "zip": "75019",
      "lat": 32.989065815207766,
      "lng": -96.72298443032457
    },
    "status": "scheduled",
    "createdAt": "2025-10-21T23:24:54.277Z"
  },
  {
    "id": "apt-1762471018000-38",
    "repId": "rep51",
    "date": "2025-11-06",
    "timeSlot": "2pm",
    "customerName": "Tom Wilson",
    "customerPhone": "662-941-6505",
    "customerEmail": "tom.wilson@email.com",
    "address": {
      "street": "8710 Maple Dr",
      "city": "Carriere",
      "state": "MS",
      "zip": "39426",
      "lat": 32.259221241435824,
      "lng": -90.25375358159211
    },
    "status": "scheduled",
    "createdAt": "2025-10-23T03:30:29.880Z"
  },
  {
    "id": "apt-1762471018000-39",
    "repId": "rep52",
    "date": "2025-11-06",
    "timeSlot": "10am",
    "customerName": "Brian Wright",
    "customerPhone": "931-261-4328",
    "customerEmail": "brian.wright@email.com",
    "address": {
      "street": "1274 Oak Ave",
      "city": "Memphis",
      "state": "TN",
      "zip": "38103",
      "lat": 36.12741385914965,
      "lng": -86.72661537522751
    },
    "status": "scheduled",
    "createdAt": "2025-11-03T10:58:11.542Z"
  },
  {
    "id": "apt-1762471018000-40",
    "repId": "rep52",
    "date": "2025-11-06",
    "timeSlot": "7pm",
    "customerName": "Stephanie King",
    "customerPhone": "615-273-9207",
    "customerEmail": "stephanie.king@email.com",
    "address": {
      "street": "5209 Oak Ave",
      "city": "Memphis",
      "state": "TN",
      "zip": "38103",
      "lat": 36.13056958891844,
      "lng": -86.76620372571738
    },
    "status": "scheduled",
    "createdAt": "2025-10-23T23:02:49.913Z"
  },
  {
    "id": "apt-1762471018000-41",
    "repId": "rep53",
    "date": "2025-11-06",
    "timeSlot": "2pm",
    "customerName": "Michelle Walker",
    "customerPhone": "334-273-5286",
    "customerEmail": "michelle.walker@email.com",
    "address": {
      "street": "9328 Pine St",
      "city": "Athens",
      "state": "AL",
      "zip": "35611",
      "lat": 33.317026708136034,
      "lng": -86.57872655875929
    },
    "status": "scheduled",
    "createdAt": "2025-11-06T21:22:01.580Z"
  },
  {
    "id": "apt-1762471018000-42",
    "repId": "rep53",
    "date": "2025-11-06",
    "timeSlot": "7pm",
    "customerName": "Amanda Garcia",
    "customerPhone": "205-858-7686",
    "customerEmail": "amanda.garcia@email.com",
    "address": {
      "street": "8346 Park Blvd",
      "city": "Athens",
      "state": "AL",
      "zip": "35611",
      "lat": 33.2563491095233,
      "lng": -86.6181920826566
    },
    "status": "scheduled",
    "createdAt": "2025-11-06T02:04:22.102Z"
  },
  {
    "id": "apt-1762471018000-43",
    "repId": "rep54",
    "date": "2025-11-06",
    "timeSlot": "10am",
    "customerName": "Kevin Brown",
    "customerPhone": "985-821-8045",
    "customerEmail": "kevin.brown@email.com",
    "address": {
      "street": "2830 Cedar Ln",
      "city": "Greenwood",
      "state": "LA",
      "zip": "71033",
      "lat": 30.239740329952717,
      "lng": -91.29282394763288
    },
    "status": "scheduled",
    "createdAt": "2025-10-18T21:50:12.265Z"
  },
  {
    "id": "apt-1762471018000-44",
    "repId": "rep54",
    "date": "2025-11-06",
    "timeSlot": "2pm",
    "customerName": "Jason Turner",
    "customerPhone": "318-243-8587",
    "customerEmail": "jason.turner@email.com",
    "address": {
      "street": "2298 Park Blvd",
      "city": "Greenwood",
      "state": "LA",
      "zip": "71033",
      "lat": 30.212752597093655,
      "lng": -91.20052584091006
    },
    "status": "scheduled",
    "createdAt": "2025-10-18T03:25:04.025Z"
  },
  {
    "id": "apt-1762471018000-45",
    "repId": "rep54",
    "date": "2025-11-06",
    "timeSlot": "7pm",
    "customerName": "Christopher Harris",
    "customerPhone": "985-680-3096",
    "customerEmail": "christopher.harris@email.com",
    "address": {
      "street": "1499 Main St",
      "city": "Greenwood",
      "state": "LA",
      "zip": "71033",
      "lat": 30.242658075170556,
      "lng": -91.24471297633353
    },
    "status": "scheduled",
    "createdAt": "2025-10-19T09:01:42.887Z"
  },
  {
    "id": "apt-1762471018000-46",
    "repId": "rep56",
    "date": "2025-11-06",
    "timeSlot": "7pm",
    "customerName": "Brian Wright",
    "customerPhone": "256-705-5346",
    "customerEmail": "brian.wright@email.com",
    "address": {
      "street": "553 Park Blvd",
      "city": "Prattville",
      "state": "AL",
      "zip": "36067",
      "lat": 33.449424423414506,
      "lng": -86.5872826062572
    },
    "status": "scheduled",
    "createdAt": "2025-10-19T18:04:58.344Z"
  },
  {
    "id": "apt-1762471018000-47",
    "repId": "rep59",
    "date": "2025-11-06",
    "timeSlot": "10am",
    "customerName": "Michelle Walker",
    "customerPhone": "806-926-9527",
    "customerEmail": "michelle.walker@email.com",
    "address": {
      "street": "1445 Main St",
      "city": "GREENVILLE",
      "state": "TX",
      "zip": "75401",
      "lat": 32.93594547899453,
      "lng": -97.01634536598122
    },
    "status": "scheduled",
    "createdAt": "2025-10-31T13:10:28.335Z"
  },
  {
    "id": "apt-1762471018000-48",
    "repId": "rep60",
    "date": "2025-11-06",
    "timeSlot": "10am",
    "customerName": "Brandon White",
    "customerPhone": "806-651-6814",
    "customerEmail": "brandon.white@email.com",
    "address": {
      "street": "8664 Maple Dr",
      "city": "Dallas",
      "state": "TX",
      "zip": "75212",
      "lat": 32.97303721001775,
      "lng": -96.84348391431864
    },
    "status": "scheduled",
    "createdAt": "2025-10-23T14:14:53.488Z"
  },
  {
    "id": "apt-1762471018000-49",
    "repId": "rep60",
    "date": "2025-11-06",
    "timeSlot": "7pm",
    "customerName": "Amanda Johnson",
    "customerPhone": "469-550-6393",
    "customerEmail": "amanda.johnson@email.com",
    "address": {
      "street": "8459 Park Blvd",
      "city": "Dallas",
      "state": "TX",
      "zip": "75212",
      "lat": 33.02000932410752,
      "lng": -96.86897160207486
    },
    "status": "scheduled",
    "createdAt": "2025-10-17T07:29:26.014Z"
  },
  {
    "id": "apt-1762471018000-50",
    "repId": "rep61",
    "date": "2025-11-06",
    "timeSlot": "2pm",
    "customerName": "Amanda Garcia",
    "customerPhone": "870-563-1212",
    "customerEmail": "amanda.garcia@email.com",
    "address": {
      "street": "1578 Main St",
      "city": "Bentonville",
      "state": "AR",
      "zip": "72712",
      "lat": 34.61384093858549,
      "lng": -92.33521030149028
    },
    "status": "scheduled",
    "createdAt": "2025-10-20T21:11:26.919Z"
  },
  {
    "id": "apt-1762471018000-51",
    "repId": "rep61",
    "date": "2025-11-06",
    "timeSlot": "7pm",
    "customerName": "Ryan Mitchell",
    "customerPhone": "870-949-7887",
    "customerEmail": "ryan.mitchell@email.com",
    "address": {
      "street": "7755 Oak Ave",
      "city": "Bentonville",
      "state": "AR",
      "zip": "72712",
      "lat": 34.58589967097228,
      "lng": -92.37912340088052
    },
    "status": "scheduled",
    "createdAt": "2025-10-18T09:17:46.894Z"
  },
  {
    "id": "apt-1762471018000-52",
    "repId": "rep63",
    "date": "2025-11-06",
    "timeSlot": "7pm",
    "customerName": "Ryan Mitchell",
    "customerPhone": "318-968-9595",
    "customerEmail": "ryan.mitchell@email.com",
    "address": {
      "street": "7974 Elm St",
      "city": "Benton",
      "state": "LA",
      "zip": "71006",
      "lat": 30.55340314430339,
      "lng": -91.1735872267753
    },
    "status": "scheduled",
    "createdAt": "2025-11-01T23:58:13.557Z"
  },
  {
    "id": "apt-1762471018000-53",
    "repId": "rep64",
    "date": "2025-11-06",
    "timeSlot": "7pm",
    "customerName": "Samantha Lee",
    "customerPhone": "251-674-4559",
    "customerEmail": "samantha.lee@email.com",
    "address": {
      "street": "9026 Elm St",
      "city": "Leeds",
      "state": "AL",
      "zip": "35094",
      "lat": 33.442980222575805,
      "lng": -86.6886743993649
    },
    "status": "scheduled",
    "createdAt": "2025-10-29T01:10:45.764Z"
  },
  {
    "id": "apt-1762471018000-54",
    "repId": "rep65",
    "date": "2025-11-06",
    "timeSlot": "2pm",
    "customerName": "Christopher Harris",
    "customerPhone": "254-687-6159",
    "customerEmail": "christopher.harris@email.com",
    "address": {
      "street": "5960 Oak Ave",
      "city": "Houston",
      "state": "TX",
      "zip": "77069",
      "lat": 32.79053431913571,
      "lng": -96.6901235073361
    },
    "status": "scheduled",
    "createdAt": "2025-11-05T20:28:49.965Z"
  },
  {
    "id": "apt-1762471018000-55",
    "repId": "rep66",
    "date": "2025-11-06",
    "timeSlot": "2pm",
    "customerName": "Jennifer Martinez",
    "customerPhone": "281-593-5903",
    "customerEmail": "jennifer.martinez@email.com",
    "address": {
      "street": "4129 Oak Ave",
      "city": "Tyler",
      "state": "TX",
      "zip": "75709",
      "lat": 33.01037932522233,
      "lng": -96.78034485516453
    },
    "status": "scheduled",
    "createdAt": "2025-10-31T23:43:14.455Z"
  },
  {
    "id": "apt-1762471018000-56",
    "repId": "rep67",
    "date": "2025-11-06",
    "timeSlot": "2pm",
    "customerName": "Eric Rodriguez",
    "customerPhone": "423-748-2790",
    "customerEmail": "eric.rodriguez@email.com",
    "address": {
      "street": "8745 Pine St",
      "city": "Sequatchie",
      "state": "TN",
      "zip": "37374",
      "lat": 35.93872494220924,
      "lng": -86.76973019429057
    },
    "status": "scheduled",
    "createdAt": "2025-10-23T12:20:43.093Z"
  },
  {
    "id": "apt-1762471018000-57",
    "repId": "rep68",
    "date": "2025-11-06",
    "timeSlot": "10am",
    "customerName": "James Anderson",
    "customerPhone": "901-216-3137",
    "customerEmail": "james.anderson@email.com",
    "address": {
      "street": "715 Cedar Ln",
      "city": "Memphis",
      "state": "TN",
      "zip": "38120",
      "lat": 35.934171252472005,
      "lng": -86.77078692777191
    },
    "status": "scheduled",
    "createdAt": "2025-10-21T11:56:59.618Z"
  },
  {
    "id": "apt-1762471018000-58",
    "repId": "rep68",
    "date": "2025-11-06",
    "timeSlot": "7pm",
    "customerName": "Kimberly Crump",
    "customerPhone": "901-341-5884",
    "customerEmail": "kimberly.crump@email.com",
    "address": {
      "street": "751 Elm St",
      "city": "Memphis",
      "state": "TN",
      "zip": "38120",
      "lat": 35.947899822583565,
      "lng": -86.74304362080157
    },
    "status": "scheduled",
    "createdAt": "2025-10-29T20:07:58.896Z"
  },
  {
    "id": "apt-1762471018000-59",
    "repId": "rep69",
    "date": "2025-11-06",
    "timeSlot": "10am",
    "customerName": "Ashley Clark",
    "customerPhone": "706-677-7792",
    "customerEmail": "ashley.clark@email.com",
    "address": {
      "street": "3626 Oak Ave",
      "city": "Morrow",
      "state": "GA",
      "zip": "30260",
      "lat": 33.57614927672404,
      "lng": -84.34649855838924
    },
    "status": "scheduled",
    "createdAt": "2025-10-28T14:30:42.100Z"
  },
  {
    "id": "apt-1762471018000-60",
    "repId": "rep71",
    "date": "2025-11-06",
    "timeSlot": "10am",
    "customerName": "Sarah Johnson",
    "customerPhone": "504-878-2450",
    "customerEmail": "sarah.johnson@email.com",
    "address": {
      "street": "5150 Oak Ave",
      "city": "Lafayette",
      "state": "LA",
      "zip": "70506",
      "lat": 30.677995534499104,
      "lng": -91.12693179964423
    },
    "status": "scheduled",
    "createdAt": "2025-10-27T12:30:01.271Z"
  },
  {
    "id": "apt-1762471018000-61",
    "repId": "rep71",
    "date": "2025-11-06",
    "timeSlot": "7pm",
    "customerName": "Sarah Johnson",
    "customerPhone": "337-747-9198",
    "customerEmail": "sarah.johnson@email.com",
    "address": {
      "street": "3048 Maple Dr",
      "city": "Lafayette",
      "state": "LA",
      "zip": "70506",
      "lat": 30.676273668202473,
      "lng": -91.12332589844715
    },
    "status": "scheduled",
    "createdAt": "2025-10-26T00:57:25.544Z"
  },
  {
    "id": "apt-1762471018000-62",
    "repId": "rep75",
    "date": "2025-11-06",
    "timeSlot": "2pm",
    "customerName": "Michelle Walker",
    "customerPhone": "901-353-8504",
    "customerEmail": "michelle.walker@email.com",
    "address": {
      "street": "1284 Oak Ave",
      "city": "Chattanooga",
      "state": "TN",
      "zip": "37421",
      "lat": 36.40962292171571,
      "lng": -86.64811375929133
    },
    "status": "scheduled",
    "createdAt": "2025-10-28T10:00:04.649Z"
  },
  {
    "id": "apt-1762471018000-63",
    "repId": "rep76",
    "date": "2025-11-06",
    "timeSlot": "2pm",
    "customerName": "Brian Wright",
    "customerPhone": "630-410-4065",
    "customerEmail": "brian.wright@email.com",
    "address": {
      "street": "3818 Main St",
      "city": "Chester",
      "state": "IL",
      "zip": "62233",
      "lat": 38.371119193630896,
      "lng": -90.2525779056228
    },
    "status": "scheduled",
    "createdAt": "2025-10-26T05:43:16.349Z"
  },
  {
    "id": "apt-1762471018000-64",
    "repId": "rep80",
    "date": "2025-11-06",
    "timeSlot": "10am",
    "customerName": "Lisa Brown",
    "customerPhone": "423-533-7767",
    "customerEmail": "lisa.brown@email.com",
    "address": {
      "street": "5637 Maple Dr",
      "city": "Lebanon",
      "state": "TN",
      "zip": "37087",
      "lat": 36.22896007099228,
      "lng": -86.99912702048736
    },
    "status": "scheduled",
    "createdAt": "2025-10-19T06:44:26.846Z"
  },
  {
    "id": "apt-1762471018000-65",
    "repId": "rep82",
    "date": "2025-11-06",
    "timeSlot": "2pm",
    "customerName": "Nicole Green",
    "customerPhone": "404-975-8017",
    "customerEmail": "nicole.green@email.com",
    "address": {
      "street": "1022 Oak Ave",
      "city": "Johns Creek",
      "state": "GA",
      "zip": "30097",
      "lat": 33.52660903239261,
      "lng": -84.52065888760936
    },
    "status": "scheduled",
    "createdAt": "2025-10-17T22:10:40.521Z"
  },
  {
    "id": "apt-1762471018000-66",
    "repId": "rep83",
    "date": "2025-11-06",
    "timeSlot": "10am",
    "customerName": "Ryan Mitchell",
    "customerPhone": "555-651-2280",
    "customerEmail": "ryan.mitchell@email.com",
    "address": {
      "street": "3035 Cedar Ln",
      "city": "Birmingham",
      "state": "Al",
      "zip": "36110",
      "lat": 33.86879637263118,
      "lng": -84.579900624247
    },
    "status": "scheduled",
    "createdAt": "2025-11-03T12:08:08.031Z"
  },
  {
    "id": "apt-1762471018000-67",
    "repId": "rep84",
    "date": "2025-11-06",
    "timeSlot": "2pm",
    "customerName": "Lauren Allen",
    "customerPhone": "555-217-3278",
    "customerEmail": "lauren.allen@email.com",
    "address": {
      "street": "5082 Cedar Ln",
      "city": "Sicklerville",
      "state": "NJ",
      "zip": "08081",
      "lat": 39.96837204161577,
      "lng": -74.64977888887913
    },
    "status": "scheduled",
    "createdAt": "2025-10-19T09:16:08.168Z"
  },
  {
    "id": "apt-1762471018000-68",
    "repId": "rep84",
    "date": "2025-11-06",
    "timeSlot": "7pm",
    "customerName": "Michael Thompson",
    "customerPhone": "555-885-9029",
    "customerEmail": "michael.thompson@email.com",
    "address": {
      "street": "6086 Oak Ave",
      "city": "Sicklerville",
      "state": "NJ",
      "zip": "08081",
      "lat": 39.954264946199814,
      "lng": -74.71625374468434
    },
    "status": "scheduled",
    "createdAt": "2025-10-17T05:36:02.595Z"
  },
  {
    "id": "apt-1762471018000-69",
    "repId": "rep86",
    "date": "2025-11-06",
    "timeSlot": "10am",
    "customerName": "Jason Turner",
    "customerPhone": "361-454-4583",
    "customerEmail": "jason.turner@email.com",
    "address": {
      "street": "8640 Elm St",
      "city": "Tyler",
      "state": "TX",
      "zip": "75703",
      "lat": 32.5777841914165,
      "lng": -96.89843290385603
    },
    "status": "scheduled",
    "createdAt": "2025-11-01T02:33:53.186Z"
  },
  {
    "id": "apt-1762471018000-70",
    "repId": "rep86",
    "date": "2025-11-06",
    "timeSlot": "2pm",
    "customerName": "Jessica Moore",
    "customerPhone": "903-280-4961",
    "customerEmail": "jessica.moore@email.com",
    "address": {
      "street": "901 Maple Dr",
      "city": "Tyler",
      "state": "TX",
      "zip": "75703",
      "lat": 32.59651959692163,
      "lng": -96.81738609307772
    },
    "status": "scheduled",
    "createdAt": "2025-10-21T13:48:33.029Z"
  },
  {
    "id": "apt-1762471018000-71",
    "repId": "rep87",
    "date": "2025-11-06",
    "timeSlot": "10am",
    "customerName": "Melissa Scott",
    "customerPhone": "417-580-0660",
    "customerEmail": "melissa.scott@email.com",
    "address": {
      "street": "5170 Park Blvd",
      "city": "St. Louis",
      "state": "MO",
      "zip": "63141",
      "lat": 38.575802949954124,
      "lng": -90.1073553850931
    },
    "status": "scheduled",
    "createdAt": "2025-10-22T13:53:36.333Z"
  },
  {
    "id": "apt-1762471018000-72",
    "repId": "rep88",
    "date": "2025-11-06",
    "timeSlot": "2pm",
    "customerName": "Lauren Allen",
    "customerPhone": "539-490-1590",
    "customerEmail": "lauren.allen@email.com",
    "address": {
      "street": "1701 Elm St",
      "city": "Oklahoma City",
      "state": "OK",
      "zip": "73134",
      "lat": 35.54898179411682,
      "lng": -97.65293451514067
    },
    "status": "scheduled",
    "createdAt": "2025-11-04T12:22:59.498Z"
  },
  {
    "id": "apt-1762471018000-73",
    "repId": "rep89",
    "date": "2025-11-06",
    "timeSlot": "7pm",
    "customerName": "Michelle Walker",
    "customerPhone": "662-775-5532",
    "customerEmail": "michelle.walker@email.com",
    "address": {
      "street": "6950 Oak Ave",
      "city": "Southaven",
      "state": "MS",
      "zip": "38671",
      "lat": 32.13579415131762,
      "lng": -90.00239152958002
    },
    "status": "scheduled",
    "createdAt": "2025-11-01T03:41:11.153Z"
  },
  {
    "id": "apt-1762471018000-74",
    "repId": "rep90",
    "date": "2025-11-06",
    "timeSlot": "2pm",
    "customerName": "Lauren Allen",
    "customerPhone": "662-398-2265",
    "customerEmail": "lauren.allen@email.com",
    "address": {
      "street": "7527 Cedar Ln",
      "city": "Pearl",
      "state": "MS",
      "zip": "39208",
      "lat": 32.156912149259526,
      "lng": -90.08184329230166
    },
    "status": "scheduled",
    "createdAt": "2025-10-19T22:33:39.140Z"
  },
  {
    "id": "apt-1762471018000-75",
    "repId": "rep91",
    "date": "2025-11-06",
    "timeSlot": "7pm",
    "customerName": "Lauren Allen",
    "customerPhone": "662-736-1476",
    "customerEmail": "lauren.allen@email.com",
    "address": {
      "street": "8235 Pine St",
      "city": "Southaven",
      "state": "MS",
      "zip": "38671",
      "lat": 32.381883552427894,
      "lng": -90.07501015587921
    },
    "status": "scheduled",
    "createdAt": "2025-10-26T12:32:18.422Z"
  },
  {
    "id": "apt-1762471018000-76",
    "repId": "rep92",
    "date": "2025-11-06",
    "timeSlot": "2pm",
    "customerName": "Lisa Brown",
    "customerPhone": "601-520-9878",
    "customerEmail": "lisa.brown@email.com",
    "address": {
      "street": "7810 Park Blvd",
      "city": "Greenville",
      "state": "MS",
      "zip": "38701",
      "lat": 32.077408739478805,
      "lng": -90.2648000989836
    },
    "status": "scheduled",
    "createdAt": "2025-10-27T04:35:22.036Z"
  },
  {
    "id": "apt-1762471018000-77",
    "repId": "rep93",
    "date": "2025-11-06",
    "timeSlot": "10am",
    "customerName": "Angela Martinez",
    "customerPhone": "601-629-5228",
    "customerEmail": "angela.martinez@email.com",
    "address": {
      "street": "6676 Oak Ave",
      "city": "Pearl",
      "state": "MS",
      "zip": "39208",
      "lat": 32.36386609336344,
      "lng": -90.30756602229498
    },
    "status": "scheduled",
    "createdAt": "2025-11-06T20:57:37.602Z"
  },
  {
    "id": "apt-1762471018000-78",
    "repId": "rep93",
    "date": "2025-11-06",
    "timeSlot": "7pm",
    "customerName": "Matthew Hall",
    "customerPhone": "769-356-7714",
    "customerEmail": "matthew.hall@email.com",
    "address": {
      "street": "3643 Cedar Ln",
      "city": "Pearl",
      "state": "MS",
      "zip": "39208",
      "lat": 32.38729548447286,
      "lng": -90.25344304525703
    },
    "status": "scheduled",
    "createdAt": "2025-10-25T17:25:55.983Z"
  },
  {
    "id": "apt-1762471018000-79",
    "repId": "rep94",
    "date": "2025-11-06",
    "timeSlot": "7pm",
    "customerName": "Nicole Green",
    "customerPhone": "769-279-4833",
    "customerEmail": "nicole.green@email.com",
    "address": {
      "street": "5995 Oak Ave",
      "city": "Pearl",
      "state": "MS",
      "zip": "39208",
      "lat": 32.48401315586926,
      "lng": -90.39780140581749
    },
    "status": "scheduled",
    "createdAt": "2025-10-18T10:31:15.652Z"
  },
  {
    "id": "apt-1762471018000-80",
    "repId": "rep95",
    "date": "2025-11-06",
    "timeSlot": "7pm",
    "customerName": "Samantha Lee",
    "customerPhone": "504-497-0738",
    "customerEmail": "samantha.lee@email.com",
    "address": {
      "street": "9323 Pine St",
      "city": "Shreveport",
      "state": "LA",
      "zip": "71101",
      "lat": 30.428232067317634,
      "lng": -91.23793573997885
    },
    "status": "scheduled",
    "createdAt": "2025-10-31T14:30:06.543Z"
  },
  {
    "id": "apt-1762471018000-81",
    "repId": "rep96",
    "date": "2025-11-06",
    "timeSlot": "2pm",
    "customerName": "Christopher Harris",
    "customerPhone": "662-424-2002",
    "customerEmail": "christopher.harris@email.com",
    "address": {
      "street": "5213 Oak Ave",
      "city": "Southaven",
      "state": "MS",
      "zip": "38671",
      "lat": 32.52717534677824,
      "lng": -90.25498170275343
    },
    "status": "scheduled",
    "createdAt": "2025-11-03T09:00:58.757Z"
  },
  {
    "id": "apt-1762471018000-82",
    "repId": "rep97",
    "date": "2025-11-06",
    "timeSlot": "10am",
    "customerName": "Lisa Brown",
    "customerPhone": "601-571-6161",
    "customerEmail": "lisa.brown@email.com",
    "address": {
      "street": "8487 Maple Dr",
      "city": "Southaven",
      "state": "MS",
      "zip": "38671",
      "lat": 32.13536386966167,
      "lng": -90.29678381319178
    },
    "status": "scheduled",
    "createdAt": "2025-11-03T23:35:32.075Z"
  },
  {
    "id": "apt-1762471018000-83",
    "repId": "rep98",
    "date": "2025-11-06",
    "timeSlot": "2pm",
    "customerName": "Robert Taylor",
    "customerPhone": "816-278-2918",
    "customerEmail": "robert.taylor@email.com",
    "address": {
      "street": "9220 Oak Ave",
      "city": "Kansas City",
      "state": "MO",
      "zip": "64117",
      "lat": 38.852510706172474,
      "lng": -90.01139672044175
    },
    "status": "scheduled",
    "createdAt": "2025-10-19T14:08:15.067Z"
  },
  {
    "id": "apt-1762471018000-84",
    "repId": "rep1",
    "date": "2025-11-07",
    "timeSlot": "10am",
    "customerName": "David Lee",
    "customerPhone": "478-854-3796",
    "customerEmail": "david.lee@email.com",
    "address": {
      "street": "9753 Main St",
      "city": "KENNESAW",
      "state": "GA",
      "zip": "30144",
      "lat": 33.75160295358254,
      "lng": -84.31764334381873
    },
    "status": "scheduled",
    "createdAt": "2025-10-17T17:40:11.270Z"
  },
  {
    "id": "apt-1762471018000-85",
    "repId": "rep3",
    "date": "2025-11-07",
    "timeSlot": "10am",
    "customerName": "David Lee",
    "customerPhone": "770-547-7129",
    "customerEmail": "david.lee@email.com",
    "address": {
      "street": "2985 Cedar Ln",
      "city": "Douglasville",
      "state": "GA",
      "zip": "30135",
      "lat": 33.91543788457929,
      "lng": -84.27891369627781
    },
    "status": "scheduled",
    "createdAt": "2025-11-02T09:21:13.021Z"
  },
  {
    "id": "apt-1762471018000-86",
    "repId": "rep3",
    "date": "2025-11-07",
    "timeSlot": "2pm",
    "customerName": "Tom Wilson",
    "customerPhone": "912-308-9218",
    "customerEmail": "tom.wilson@email.com",
    "address": {
      "street": "9067 Pine St",
      "city": "Douglasville",
      "state": "GA",
      "zip": "30135",
      "lat": 33.94506419335127,
      "lng": -84.31469964737454
    },
    "status": "scheduled",
    "createdAt": "2025-10-28T21:00:17.467Z"
  },
  {
    "id": "apt-1762471018000-87",
    "repId": "rep4",
    "date": "2025-11-07",
    "timeSlot": "2pm",
    "customerName": "Lauren Allen",
    "customerPhone": "713-665-4568",
    "customerEmail": "lauren.allen@email.com",
    "address": {
      "street": "2210 Elm St",
      "city": "COPPELL",
      "state": "TX",
      "zip": "75019",
      "lat": 32.802561238172615,
      "lng": -96.70715972603843
    },
    "status": "scheduled",
    "createdAt": "2025-10-30T13:36:21.782Z"
  },
  {
    "id": "apt-1762471018000-88",
    "repId": "rep5",
    "date": "2025-11-07",
    "timeSlot": "10am",
    "customerName": "Kevin Brown",
    "customerPhone": "479-811-4074",
    "customerEmail": "kevin.brown@email.com",
    "address": {
      "street": "4664 Elm St",
      "city": "RUSSELLVILLE",
      "state": "AR",
      "zip": "72802",
      "lat": 34.99961827775296,
      "lng": -92.334526486237
    },
    "status": "scheduled",
    "createdAt": "2025-11-02T13:55:42.528Z"
  },
  {
    "id": "apt-1762471018000-89",
    "repId": "rep5",
    "date": "2025-11-07",
    "timeSlot": "2pm",
    "customerName": "Eric Rodriguez",
    "customerPhone": "479-589-7564",
    "customerEmail": "eric.rodriguez@email.com",
    "address": {
      "street": "1933 Maple Dr",
      "city": "RUSSELLVILLE",
      "state": "AR",
      "zip": "72802",
      "lat": 34.98821797303451,
      "lng": -92.30021016544386
    },
    "status": "scheduled",
    "createdAt": "2025-10-21T17:42:28.770Z"
  },
  {
    "id": "apt-1762471018000-90",
    "repId": "rep5",
    "date": "2025-11-07",
    "timeSlot": "7pm",
    "customerName": "Nicole Green",
    "customerPhone": "479-814-9590",
    "customerEmail": "nicole.green@email.com",
    "address": {
      "street": "2959 Main St",
      "city": "RUSSELLVILLE",
      "state": "AR",
      "zip": "72802",
      "lat": 34.97091604754275,
      "lng": -92.3450899749962
    },
    "status": "scheduled",
    "createdAt": "2025-10-26T09:49:01.477Z"
  },
  {
    "id": "apt-1762471018000-91",
    "repId": "rep6",
    "date": "2025-11-07",
    "timeSlot": "2pm",
    "customerName": "Brandon White",
    "customerPhone": "662-381-6041",
    "customerEmail": "brandon.white@email.com",
    "address": {
      "street": "1034 Park Blvd",
      "city": "HORN LAKE",
      "state": "MS",
      "zip": "38637",
      "lat": 32.078761074633924,
      "lng": -90.15329962903536
    },
    "status": "scheduled",
    "createdAt": "2025-11-02T19:32:53.103Z"
  },
  {
    "id": "apt-1762471018000-92",
    "repId": "rep6",
    "date": "2025-11-07",
    "timeSlot": "7pm",
    "customerName": "Michelle Walker",
    "customerPhone": "662-744-3233",
    "customerEmail": "michelle.walker@email.com",
    "address": {
      "street": "3279 Park Blvd",
      "city": "HORN LAKE",
      "state": "MS",
      "zip": "38637",
      "lat": 32.02590792384301,
      "lng": -90.09925284364049
    },
    "status": "scheduled",
    "createdAt": "2025-10-18T16:32:15.798Z"
  },
  {
    "id": "apt-1762471018000-93",
    "repId": "rep7",
    "date": "2025-11-07",
    "timeSlot": "10am",
    "customerName": "Daniel Lewis",
    "customerPhone": "251-243-6846",
    "customerEmail": "daniel.lewis@email.com",
    "address": {
      "street": "2849 Oak Ave",
      "city": "Alabaster",
      "state": "AL",
      "zip": "35114",
      "lat": 33.32480235676631,
      "lng": -86.57021871291936
    },
    "status": "scheduled",
    "createdAt": "2025-10-22T20:10:11.458Z"
  },
  {
    "id": "apt-1762471018000-94",
    "repId": "rep8",
    "date": "2025-11-07",
    "timeSlot": "10am",
    "customerName": "Sarah Johnson",
    "customerPhone": "770-673-1072",
    "customerEmail": "sarah.johnson@email.com",
    "address": {
      "street": "1911 Park Blvd",
      "city": "FAYETTEVILLE",
      "state": "GA",
      "zip": "30214",
      "lat": 33.889221408847526,
      "lng": -84.53502078506457
    },
    "status": "scheduled",
    "createdAt": "2025-11-01T06:29:17.487Z"
  },
  {
    "id": "apt-1762471018000-95",
    "repId": "rep8",
    "date": "2025-11-07",
    "timeSlot": "2pm",
    "customerName": "Sarah Johnson",
    "customerPhone": "478-570-1475",
    "customerEmail": "sarah.johnson@email.com",
    "address": {
      "street": "5577 Maple Dr",
      "city": "FAYETTEVILLE",
      "state": "GA",
      "zip": "30214",
      "lat": 33.87549558764911,
      "lng": -84.53538581494574
    },
    "status": "scheduled",
    "createdAt": "2025-10-30T07:20:13.447Z"
  },
  {
    "id": "apt-1762471018000-96",
    "repId": "rep8",
    "date": "2025-11-07",
    "timeSlot": "7pm",
    "customerName": "Tom Wilson",
    "customerPhone": "706-961-5936",
    "customerEmail": "tom.wilson@email.com",
    "address": {
      "street": "7047 Maple Dr",
      "city": "FAYETTEVILLE",
      "state": "GA",
      "zip": "30214",
      "lat": 33.83234843216796,
      "lng": -84.51974799630537
    },
    "status": "scheduled",
    "createdAt": "2025-10-28T02:18:07.632Z"
  },
  {
    "id": "apt-1762471018000-97",
    "repId": "rep9",
    "date": "2025-11-07",
    "timeSlot": "7pm",
    "customerName": "Christopher Harris",
    "customerPhone": "478-483-2474",
    "customerEmail": "christopher.harris@email.com",
    "address": {
      "street": "4649 Main St",
      "city": "SOUTH FULTON",
      "state": "GA",
      "zip": "30349",
      "lat": 33.9535098163964,
      "lng": -84.18390891836009
    },
    "status": "scheduled",
    "createdAt": "2025-10-24T15:43:17.273Z"
  },
  {
    "id": "apt-1762471018000-98",
    "repId": "rep11",
    "date": "2025-11-07",
    "timeSlot": "2pm",
    "customerName": "Brandon White",
    "customerPhone": "972-894-5536",
    "customerEmail": "brandon.white@email.com",
    "address": {
      "street": "371 Elm St",
      "city": "Houston",
      "state": "TX",
      "zip": "77090",
      "lat": 32.85532462297006,
      "lng": -96.74377098644788
    },
    "status": "scheduled",
    "createdAt": "2025-10-20T16:46:24.217Z"
  },
  {
    "id": "apt-1762471018000-99",
    "repId": "rep12",
    "date": "2025-11-07",
    "timeSlot": "2pm",
    "customerName": "Samantha Lee",
    "customerPhone": "251-710-5484",
    "customerEmail": "samantha.lee@email.com",
    "address": {
      "street": "7279 Cedar Ln",
      "city": "Talladega",
      "state": "AL",
      "zip": "35160",
      "lat": 33.343018967070634,
      "lng": -86.60076949537503
    },
    "status": "scheduled",
    "createdAt": "2025-11-04T17:29:32.263Z"
  },
  {
    "id": "apt-1762471018000-100",
    "repId": "rep12",
    "date": "2025-11-07",
    "timeSlot": "7pm",
    "customerName": "Ryan Mitchell",
    "customerPhone": "334-368-7067",
    "customerEmail": "ryan.mitchell@email.com",
    "address": {
      "street": "5138 Main St",
      "city": "Talladega",
      "state": "AL",
      "zip": "35160",
      "lat": 33.28955740069762,
      "lng": -86.56474145451821
    },
    "status": "scheduled",
    "createdAt": "2025-10-30T08:21:20.526Z"
  },
  {
    "id": "apt-1762471018000-101",
    "repId": "rep13",
    "date": "2025-11-07",
    "timeSlot": "10am",
    "customerName": "Amanda Garcia",
    "customerPhone": "980-822-8455",
    "customerEmail": "amanda.garcia@email.com",
    "address": {
      "street": "10073 Park Blvd",
      "city": "GRAHAM",
      "state": "NC",
      "zip": "27253",
      "lat": 35.24351110676568,
      "lng": -80.65502563599115
    },
    "status": "scheduled",
    "createdAt": "2025-10-27T09:09:32.113Z"
  },
  {
    "id": "apt-1762471018000-102",
    "repId": "rep13",
    "date": "2025-11-07",
    "timeSlot": "2pm",
    "customerName": "David Lee",
    "customerPhone": "336-424-9616",
    "customerEmail": "david.lee@email.com",
    "address": {
      "street": "7830 Elm St",
      "city": "GRAHAM",
      "state": "NC",
      "zip": "27253",
      "lat": 35.263964851737434,
      "lng": -80.7061520201581
    },
    "status": "scheduled",
    "createdAt": "2025-11-05T15:08:21.361Z"
  },
  {
    "id": "apt-1762471018000-103",
    "repId": "rep14",
    "date": "2025-11-07",
    "timeSlot": "2pm",
    "customerName": "Melissa Scott",
    "customerPhone": "205-489-1993",
    "customerEmail": "melissa.scott@email.com",
    "address": {
      "street": "5070 Pine St",
      "city": "Opelika",
      "state": "AL",
      "zip": "36804",
      "lat": 33.38551983426226,
      "lng": -86.8321932588695
    },
    "status": "scheduled",
    "createdAt": "2025-10-19T07:03:39.206Z"
  },
  {
    "id": "apt-1762471018000-104",
    "repId": "rep15",
    "date": "2025-11-07",
    "timeSlot": "7pm",
    "customerName": "Joshua Young",
    "customerPhone": "470-524-1616",
    "customerEmail": "joshua.young@email.com",
    "address": {
      "street": "6867 Maple Dr",
      "city": "SYLVESTER",
      "state": "GA",
      "zip": "31791",
      "lat": 33.59337094431949,
      "lng": -84.56379304046779
    },
    "status": "scheduled",
    "createdAt": "2025-10-20T12:19:36.759Z"
  },
  {
    "id": "apt-1762471018000-105",
    "repId": "rep16",
    "date": "2025-11-07",
    "timeSlot": "10am",
    "customerName": "Nicole Green",
    "customerPhone": "337-510-6504",
    "customerEmail": "nicole.green@email.com",
    "address": {
      "street": "7327 Oak Ave",
      "city": "BENTON",
      "state": "LA",
      "zip": "71006",
      "lat": 30.584267103498092,
      "lng": -91.37136907815214
    },
    "status": "scheduled",
    "createdAt": "2025-10-17T05:22:19.497Z"
  },
  {
    "id": "apt-1762471018000-106",
    "repId": "rep16",
    "date": "2025-11-07",
    "timeSlot": "2pm",
    "customerName": "Amanda Johnson",
    "customerPhone": "337-456-6152",
    "customerEmail": "amanda.johnson@email.com",
    "address": {
      "street": "563 Maple Dr",
      "city": "BENTON",
      "state": "LA",
      "zip": "71006",
      "lat": 30.632568336285882,
      "lng": -91.39316555484845
    },
    "status": "scheduled",
    "createdAt": "2025-10-19T10:38:24.095Z"
  },
  {
    "id": "apt-1762471018000-107",
    "repId": "rep17",
    "date": "2025-11-07",
    "timeSlot": "10am",
    "customerName": "Brian Wright",
    "customerPhone": "423-934-5225",
    "customerEmail": "brian.wright@email.com",
    "address": {
      "street": "9306 Elm St",
      "city": "BARTLETT",
      "state": "TN",
      "zip": "38135",
      "lat": 36.23922578643293,
      "lng": -86.78531679491022
    },
    "status": "scheduled",
    "createdAt": "2025-11-02T07:23:00.026Z"
  },
  {
    "id": "apt-1762471018000-108",
    "repId": "rep17",
    "date": "2025-11-07",
    "timeSlot": "2pm",
    "customerName": "Matthew Hall",
    "customerPhone": "629-826-1442",
    "customerEmail": "matthew.hall@email.com",
    "address": {
      "street": "680 Elm St",
      "city": "BARTLETT",
      "state": "TN",
      "zip": "38135",
      "lat": 36.26946156073037,
      "lng": -86.79623247720379
    },
    "status": "scheduled",
    "createdAt": "2025-11-01T07:05:24.990Z"
  },
  {
    "id": "apt-1762471018000-109",
    "repId": "rep17",
    "date": "2025-11-07",
    "timeSlot": "7pm",
    "customerName": "Jessica Moore",
    "customerPhone": "629-277-7736",
    "customerEmail": "jessica.moore@email.com",
    "address": {
      "street": "4606 Elm St",
      "city": "BARTLETT",
      "state": "TN",
      "zip": "38135",
      "lat": 36.25268687032791,
      "lng": -86.81622820297227
    },
    "status": "scheduled",
    "createdAt": "2025-10-20T11:59:01.629Z"
  },
  {
    "id": "apt-1762471018000-110",
    "repId": "rep18",
    "date": "2025-11-07",
    "timeSlot": "2pm",
    "customerName": "Brian Wright",
    "customerPhone": "325-412-0264",
    "customerEmail": "brian.wright@email.com",
    "address": {
      "street": "6054 Cedar Ln",
      "city": "Houston",
      "state": "TX",
      "zip": "77002",
      "lat": 32.93460876155708,
      "lng": -96.86472915958629
    },
    "status": "scheduled",
    "createdAt": "2025-10-25T12:21:23.424Z"
  },
  {
    "id": "apt-1762471018000-111",
    "repId": "rep18",
    "date": "2025-11-07",
    "timeSlot": "7pm",
    "customerName": "Mike Davis",
    "customerPhone": "806-820-6409",
    "customerEmail": "mike.davis@email.com",
    "address": {
      "street": "8827 Elm St",
      "city": "Houston",
      "state": "TX",
      "zip": "77002",
      "lat": 32.97481555835031,
      "lng": -96.82966454356955
    },
    "status": "scheduled",
    "createdAt": "2025-11-01T22:15:52.529Z"
  },
  {
    "id": "apt-1762471018000-112",
    "repId": "rep19",
    "date": "2025-11-07",
    "timeSlot": "2pm",
    "customerName": "Robert Taylor",
    "customerPhone": "504-683-0363",
    "customerEmail": "robert.taylor@email.com",
    "address": {
      "street": "5201 Maple Dr",
      "city": "BATON ROUGE",
      "state": "LA",
      "zip": "70817",
      "lat": 30.73363565071825,
      "lng": -91.0036565285678
    },
    "status": "scheduled",
    "createdAt": "2025-10-18T03:45:37.929Z"
  },
  {
    "id": "apt-1762471018000-113",
    "repId": "rep20",
    "date": "2025-11-07",
    "timeSlot": "7pm",
    "customerName": "Amanda Johnson",
    "customerPhone": "843-936-8903",
    "customerEmail": "amanda.johnson@email.com",
    "address": {
      "street": "3319 Maple Dr",
      "city": "LADSON",
      "state": "SC",
      "zip": "29456",
      "lat": 33.86982236370905,
      "lng": -81.06354781750429
    },
    "status": "scheduled",
    "createdAt": "2025-10-17T07:16:29.782Z"
  },
  {
    "id": "apt-1762471018000-114",
    "repId": "rep23",
    "date": "2025-11-07",
    "timeSlot": "10am",
    "customerName": "Mike Davis",
    "customerPhone": "843-835-9617",
    "customerEmail": "mike.davis@email.com",
    "address": {
      "street": "1319 Maple Dr",
      "city": "Pelion",
      "state": "SC",
      "zip": "29123",
      "lat": 34.13175974454214,
      "lng": -81.05313622847976
    },
    "status": "scheduled",
    "createdAt": "2025-10-30T16:22:05.507Z"
  },
  {
    "id": "apt-1762471018000-115",
    "repId": "rep23",
    "date": "2025-11-07",
    "timeSlot": "7pm",
    "customerName": "Kevin Brown",
    "customerPhone": "854-602-0508",
    "customerEmail": "kevin.brown@email.com",
    "address": {
      "street": "7281 Cedar Ln",
      "city": "Pelion",
      "state": "SC",
      "zip": "29123",
      "lat": 34.107477312124004,
      "lng": -81.03607231397383
    },
    "status": "scheduled",
    "createdAt": "2025-11-01T07:14:06.014Z"
  },
  {
    "id": "apt-1762471018000-116",
    "repId": "rep27",
    "date": "2025-11-07",
    "timeSlot": "10am",
    "customerName": "Amanda Garcia",
    "customerPhone": "956-451-9829",
    "customerEmail": "amanda.garcia@email.com",
    "address": {
      "street": "6709 Main St",
      "city": "Dallas",
      "state": "TX",
      "zip": "75248",
      "lat": 32.55692046181385,
      "lng": -96.80321335105657
    },
    "status": "scheduled",
    "createdAt": "2025-11-03T20:39:19.063Z"
  },
  {
    "id": "apt-1762471018000-117",
    "repId": "rep27",
    "date": "2025-11-07",
    "timeSlot": "7pm",
    "customerName": "Amanda Johnson",
    "customerPhone": "936-482-0533",
    "customerEmail": "amanda.johnson@email.com",
    "address": {
      "street": "10038 Cedar Ln",
      "city": "Dallas",
      "state": "TX",
      "zip": "75248",
      "lat": 32.576898894544776,
      "lng": -96.75905426220554
    },
    "status": "scheduled",
    "createdAt": "2025-11-01T17:32:47.439Z"
  },
  {
    "id": "apt-1762471018000-118",
    "repId": "rep28",
    "date": "2025-11-07",
    "timeSlot": "10am",
    "customerName": "Matthew Hall",
    "customerPhone": "979-918-8231",
    "customerEmail": "matthew.hall@email.com",
    "address": {
      "street": "336 Elm St",
      "city": "San Antonio",
      "state": "TX",
      "zip": "78253",
      "lat": 33.043461845736374,
      "lng": -96.53268974125069
    },
    "status": "scheduled",
    "createdAt": "2025-11-06T01:49:39.165Z"
  },
  {
    "id": "apt-1762471018000-119",
    "repId": "rep32",
    "date": "2025-11-07",
    "timeSlot": "2pm",
    "customerName": "Ryan Mitchell",
    "customerPhone": "817-487-6576",
    "customerEmail": "ryan.mitchell@email.com",
    "address": {
      "street": "8199 Oak Ave",
      "city": "Spring",
      "state": "TX",
      "zip": "77388",
      "lat": 32.65716012071119,
      "lng": -96.91334760807737
    },
    "status": "scheduled",
    "createdAt": "2025-10-30T21:31:10.659Z"
  },
  {
    "id": "apt-1762471018000-120",
    "repId": "rep33",
    "date": "2025-11-07",
    "timeSlot": "10am",
    "customerName": "Melissa Scott",
    "customerPhone": "865-760-8601",
    "customerEmail": "melissa.scott@email.com",
    "address": {
      "street": "9225 Park Blvd",
      "city": "Atoka",
      "state": "TN",
      "zip": "38004",
      "lat": 36.26147057009987,
      "lng": -87.0361102193591
    },
    "status": "scheduled",
    "createdAt": "2025-10-29T10:49:36.315Z"
  },
  {
    "id": "apt-1762471018000-121",
    "repId": "rep33",
    "date": "2025-11-07",
    "timeSlot": "2pm",
    "customerName": "Joshua Young",
    "customerPhone": "865-729-4588",
    "customerEmail": "joshua.young@email.com",
    "address": {
      "street": "9973 Elm St",
      "city": "Atoka",
      "state": "TN",
      "zip": "38004",
      "lat": 36.1809084781822,
      "lng": -87.0505928590291
    },
    "status": "scheduled",
    "createdAt": "2025-10-19T07:28:34.290Z"
  },
  {
    "id": "apt-1762471018000-122",
    "repId": "rep33",
    "date": "2025-11-07",
    "timeSlot": "7pm",
    "customerName": "Ashley Clark",
    "customerPhone": "865-235-4134",
    "customerEmail": "ashley.clark@email.com",
    "address": {
      "street": "7225 Oak Ave",
      "city": "Atoka",
      "state": "TN",
      "zip": "38004",
      "lat": 36.25122689410794,
      "lng": -87.03948732539746
    },
    "status": "scheduled",
    "createdAt": "2025-10-29T06:02:09.085Z"
  },
  {
    "id": "apt-1762471018000-123",
    "repId": "rep34",
    "date": "2025-11-07",
    "timeSlot": "2pm",
    "customerName": "Nicole Green",
    "customerPhone": "629-390-5407",
    "customerEmail": "nicole.green@email.com",
    "address": {
      "street": "4119 Park Blvd",
      "city": "Memphis",
      "state": "TN",
      "zip": "38127",
      "lat": 36.20674467659052,
      "lng": -86.99117371225857
    },
    "status": "scheduled",
    "createdAt": "2025-11-02T02:11:18.824Z"
  },
  {
    "id": "apt-1762471018000-124",
    "repId": "rep35",
    "date": "2025-11-07",
    "timeSlot": "10am",
    "customerName": "Tom Wilson",
    "customerPhone": "228-472-3494",
    "customerEmail": "tom.wilson@email.com",
    "address": {
      "street": "1006 Oak Ave",
      "city": "Olive Branch",
      "state": "MS",
      "zip": "38655",
      "lat": 32.483652893716354,
      "lng": -90.04881330691688
    },
    "status": "scheduled",
    "createdAt": "2025-10-25T15:35:50.338Z"
  },
  {
    "id": "apt-1762471018000-125",
    "repId": "rep35",
    "date": "2025-11-07",
    "timeSlot": "2pm",
    "customerName": "Michelle Walker",
    "customerPhone": "601-957-8538",
    "customerEmail": "michelle.walker@email.com",
    "address": {
      "street": "7405 Oak Ave",
      "city": "Olive Branch",
      "state": "MS",
      "zip": "38655",
      "lat": 32.44011894566558,
      "lng": -90.11310154124452
    },
    "status": "scheduled",
    "createdAt": "2025-10-19T17:48:56.921Z"
  },
  {
    "id": "apt-1762471018000-126",
    "repId": "rep35",
    "date": "2025-11-07",
    "timeSlot": "7pm",
    "customerName": "Joshua Young",
    "customerPhone": "228-562-7799",
    "customerEmail": "joshua.young@email.com",
    "address": {
      "street": "6668 Main St",
      "city": "Olive Branch",
      "state": "MS",
      "zip": "38655",
      "lat": 32.501134950604715,
      "lng": -90.09665817262483
    },
    "status": "scheduled",
    "createdAt": "2025-11-01T10:17:07.842Z"
  },
  {
    "id": "apt-1762471018000-127",
    "repId": "rep38",
    "date": "2025-11-07",
    "timeSlot": "10am",
    "customerName": "Michelle Walker",
    "customerPhone": "662-551-7305",
    "customerEmail": "michelle.walker@email.com",
    "address": {
      "street": "8212 Main St",
      "city": "Raymond",
      "state": "MS",
      "zip": "39154",
      "lat": 32.44158609368491,
      "lng": -90.28691458627151
    },
    "status": "scheduled",
    "createdAt": "2025-10-18T22:59:13.788Z"
  },
  {
    "id": "apt-1762471018002-128",
    "repId": "rep40",
    "date": "2025-11-07",
    "timeSlot": "2pm",
    "customerName": "Joshua Young",
    "customerPhone": "601-698-8264",
    "customerEmail": "joshua.young@email.com",
    "address": {
      "street": "3485 Park Blvd",
      "city": "Olive Branch",
      "state": "MS",
      "zip": "38654",
      "lat": 32.16727712162899,
      "lng": -90.36271428127792
    },
    "status": "scheduled",
    "createdAt": "2025-11-05T21:23:19.195Z"
  },
  {
    "id": "apt-1762471018002-129",
    "repId": "rep41",
    "date": "2025-11-07",
    "timeSlot": "2pm",
    "customerName": "Daniel Lewis",
    "customerPhone": "256-208-5247",
    "customerEmail": "daniel.lewis@email.com",
    "address": {
      "street": "9614 Maple Dr",
      "city": "Birmingham",
      "state": "AL",
      "zip": "35242",
      "lat": 33.59296671305142,
      "lng": -86.59408767746116
    },
    "status": "scheduled",
    "createdAt": "2025-10-18T22:03:53.633Z"
  },
  {
    "id": "apt-1762471018002-130",
    "repId": "rep42",
    "date": "2025-11-07",
    "timeSlot": "2pm",
    "customerName": "Stephanie King",
    "customerPhone": "205-524-4980",
    "customerEmail": "stephanie.king@email.com",
    "address": {
      "street": "6556 Park Blvd",
      "city": "Theodore",
      "state": "AL",
      "zip": "36582",
      "lat": 33.473676676700315,
      "lng": -86.91723117308473
    },
    "status": "scheduled",
    "createdAt": "2025-10-18T09:54:55.328Z"
  },
  {
    "id": "apt-1762471018002-131",
    "repId": "rep42",
    "date": "2025-11-07",
    "timeSlot": "7pm",
    "customerName": "Ashley Clark",
    "customerPhone": "205-697-4942",
    "customerEmail": "ashley.clark@email.com",
    "address": {
      "street": "7025 Pine St",
      "city": "Theodore",
      "state": "AL",
      "zip": "36582",
      "lat": 33.422323997055095,
      "lng": -86.91517416990182
    },
    "status": "scheduled",
    "createdAt": "2025-10-21T02:51:24.801Z"
  },
  {
    "id": "apt-1762471018002-132",
    "repId": "rep43",
    "date": "2025-11-07",
    "timeSlot": "7pm",
    "customerName": "Mike Davis",
    "customerPhone": "854-759-0805",
    "customerEmail": "mike.davis@email.com",
    "address": {
      "street": "185 Park Blvd",
      "city": "North Augusta",
      "state": "SC",
      "zip": "29860",
      "lat": 33.975317234572145,
      "lng": -80.92461365768357
    },
    "status": "scheduled",
    "createdAt": "2025-11-01T14:52:38.719Z"
  },
  {
    "id": "apt-1762471018002-133",
    "repId": "rep44",
    "date": "2025-11-07",
    "timeSlot": "2pm",
    "customerName": "Lisa Brown",
    "customerPhone": "504-325-7321",
    "customerEmail": "lisa.brown@email.com",
    "address": {
      "street": "5914 Oak Ave",
      "city": "Covington",
      "state": "LA",
      "zip": "70433",
      "lat": 30.39630222975058,
      "lng": -91.10321124107409
    },
    "status": "scheduled",
    "createdAt": "2025-10-31T00:01:46.287Z"
  },
  {
    "id": "apt-1762471018002-134",
    "repId": "rep46",
    "date": "2025-11-07",
    "timeSlot": "10am",
    "customerName": "James Anderson",
    "customerPhone": "864-828-6757",
    "customerEmail": "james.anderson@email.com",
    "address": {
      "street": "6159 Elm St",
      "city": "North Augusta",
      "state": "SC",
      "zip": "29860",
      "lat": 34.08600901790127,
      "lng": -80.96456042635452
    },
    "status": "scheduled",
    "createdAt": "2025-10-22T23:08:09.604Z"
  },
  {
    "id": "apt-1762471018002-135",
    "repId": "rep46",
    "date": "2025-11-07",
    "timeSlot": "2pm",
    "customerName": "Kevin Brown",
    "customerPhone": "854-956-8265",
    "customerEmail": "kevin.brown@email.com",
    "address": {
      "street": "4829 Elm St",
      "city": "North Augusta",
      "state": "SC",
      "zip": "29860",
      "lat": 34.13591600149395,
      "lng": -80.97496568945176
    },
    "status": "scheduled",
    "createdAt": "2025-11-06T15:45:21.176Z"
  },
  {
    "id": "apt-1762471018002-136",
    "repId": "rep46",
    "date": "2025-11-07",
    "timeSlot": "7pm",
    "customerName": "Matthew Hall",
    "customerPhone": "864-530-6484",
    "customerEmail": "matthew.hall@email.com",
    "address": {
      "street": "7192 Park Blvd",
      "city": "North Augusta",
      "state": "SC",
      "zip": "29860",
      "lat": 34.12605896506639,
      "lng": -80.91829454724883
    },
    "status": "scheduled",
    "createdAt": "2025-11-05T08:04:58.094Z"
  },
  {
    "id": "apt-1762471018002-137",
    "repId": "rep48",
    "date": "2025-11-07",
    "timeSlot": "7pm",
    "customerName": "James Anderson",
    "customerPhone": "615-554-3994",
    "customerEmail": "james.anderson@email.com",
    "address": {
      "street": "986 Elm St",
      "city": "Jackson",
      "state": "TN",
      "zip": "38305",
      "lat": 36.12442970430344,
      "lng": -86.98634223011226
    },
    "status": "scheduled",
    "createdAt": "2025-10-20T04:00:02.570Z"
  },
  {
    "id": "apt-1762471018002-138",
    "repId": "rep49",
    "date": "2025-11-07",
    "timeSlot": "10am",
    "customerName": "Angela Martinez",
    "customerPhone": "334-504-5481",
    "customerEmail": "angela.martinez@email.com",
    "address": {
      "street": "7363 Maple Dr",
      "city": "Tuscaloosa",
      "state": "AL",
      "zip": "35406",
      "lat": 33.48386935199251,
      "lng": -86.77001374345244
    },
    "status": "scheduled",
    "createdAt": "2025-10-26T06:29:06.575Z"
  },
  {
    "id": "apt-1762471018002-139",
    "repId": "rep49",
    "date": "2025-11-07",
    "timeSlot": "2pm",
    "customerName": "Brandon White",
    "customerPhone": "205-875-3898",
    "customerEmail": "brandon.white@email.com",
    "address": {
      "street": "9518 Oak Ave",
      "city": "Tuscaloosa",
      "state": "AL",
      "zip": "35406",
      "lat": 33.472355730874995,
      "lng": -86.70231841950333
    },
    "status": "scheduled",
    "createdAt": "2025-11-02T17:21:19.488Z"
  },
  {
    "id": "apt-1762471018002-140",
    "repId": "rep50",
    "date": "2025-11-07",
    "timeSlot": "7pm",
    "customerName": "James Anderson",
    "customerPhone": "423-832-6198",
    "customerEmail": "james.anderson@email.com",
    "address": {
      "street": "9340 Elm St",
      "city": "Knoxville",
      "state": "TN",
      "zip": "37923",
      "lat": 36.261565500586926,
      "lng": -86.70289421101295
    },
    "status": "scheduled",
    "createdAt": "2025-10-21T12:06:23.714Z"
  },
  {
    "id": "apt-1762471018002-141",
    "repId": "rep51",
    "date": "2025-11-07",
    "timeSlot": "7pm",
    "customerName": "Amanda Garcia",
    "customerPhone": "769-714-6010",
    "customerEmail": "amanda.garcia@email.com",
    "address": {
      "street": "3175 Cedar Ln",
      "city": "Carriere",
      "state": "MS",
      "zip": "39426",
      "lat": 32.196242239992905,
      "lng": -90.18542511826482
    },
    "status": "scheduled",
    "createdAt": "2025-10-22T21:49:46.150Z"
  },
  {
    "id": "apt-1762471018002-142",
    "repId": "rep52",
    "date": "2025-11-07",
    "timeSlot": "10am",
    "customerName": "Jason Turner",
    "customerPhone": "865-408-9825",
    "customerEmail": "jason.turner@email.com",
    "address": {
      "street": "6063 Elm St",
      "city": "Memphis",
      "state": "TN",
      "zip": "38103",
      "lat": 36.10654502570135,
      "lng": -86.70217899218953
    },
    "status": "scheduled",
    "createdAt": "2025-10-21T00:27:28.577Z"
  },
  {
    "id": "apt-1762471018002-143",
    "repId": "rep53",
    "date": "2025-11-07",
    "timeSlot": "7pm",
    "customerName": "Christopher Harris",
    "customerPhone": "334-950-9483",
    "customerEmail": "christopher.harris@email.com",
    "address": {
      "street": "7914 Main St",
      "city": "Athens",
      "state": "AL",
      "zip": "35611",
      "lat": 33.286454837698884,
      "lng": -86.55969887473518
    },
    "status": "scheduled",
    "createdAt": "2025-11-03T09:04:29.691Z"
  },
  {
    "id": "apt-1762471018002-144",
    "repId": "rep55",
    "date": "2025-11-07",
    "timeSlot": "7pm",
    "customerName": "Ashley Clark",
    "customerPhone": "334-266-1889",
    "customerEmail": "ashley.clark@email.com",
    "address": {
      "street": "6520 Park Blvd",
      "city": "Hoover",
      "state": "AL",
      "zip": "35244",
      "lat": 33.326570751685175,
      "lng": -86.75149059267173
    },
    "status": "scheduled",
    "createdAt": "2025-10-26T03:15:32.203Z"
  },
  {
    "id": "apt-1762471018002-145",
    "repId": "rep56",
    "date": "2025-11-07",
    "timeSlot": "2pm",
    "customerName": "Ryan Mitchell",
    "customerPhone": "334-548-5963",
    "customerEmail": "ryan.mitchell@email.com",
    "address": {
      "street": "6305 Maple Dr",
      "city": "Prattville",
      "state": "AL",
      "zip": "36067",
      "lat": 33.43024826878794,
      "lng": -86.58798036196042
    },
    "status": "scheduled",
    "createdAt": "2025-11-06T19:12:08.665Z"
  },
  {
    "id": "apt-1762471018002-146",
    "repId": "rep57",
    "date": "2025-11-07",
    "timeSlot": "2pm",
    "customerName": "Emily White",
    "customerPhone": "479-564-7304",
    "customerEmail": "emily.white@email.com",
    "address": {
      "street": "3571 Maple Dr",
      "city": "RUSSELLVILLE",
      "state": "AR",
      "zip": "72802",
      "lat": 34.60942946088523,
      "lng": -92.16195045211349
    },
    "status": "scheduled",
    "createdAt": "2025-11-01T06:22:54.053Z"
  },
  {
    "id": "apt-1762471018002-147",
    "repId": "rep57",
    "date": "2025-11-07",
    "timeSlot": "7pm",
    "customerName": "Jessica Moore",
    "customerPhone": "870-460-5317",
    "customerEmail": "jessica.moore@email.com",
    "address": {
      "street": "4410 Oak Ave",
      "city": "RUSSELLVILLE",
      "state": "AR",
      "zip": "72802",
      "lat": 34.66372651259505,
      "lng": -92.23130934962496
    },
    "status": "scheduled",
    "createdAt": "2025-10-17T11:23:15.023Z"
  },
  {
    "id": "apt-1762471018002-148",
    "repId": "rep58",
    "date": "2025-11-07",
    "timeSlot": "10am",
    "customerName": "Christopher Harris",
    "customerPhone": "479-920-3263",
    "customerEmail": "christopher.harris@email.com",
    "address": {
      "street": "7975 Maple Dr",
      "city": "Royal",
      "state": "AR",
      "zip": "71968",
      "lat": 34.80717115441768,
      "lng": -92.20542367881406
    },
    "status": "scheduled",
    "createdAt": "2025-10-21T05:32:14.447Z"
  },
  {
    "id": "apt-1762471018002-149",
    "repId": "rep58",
    "date": "2025-11-07",
    "timeSlot": "7pm",
    "customerName": "Christopher Harris",
    "customerPhone": "479-856-3923",
    "customerEmail": "christopher.harris@email.com",
    "address": {
      "street": "342 Maple Dr",
      "city": "Royal",
      "state": "AR",
      "zip": "71968",
      "lat": 34.75250413112427,
      "lng": -92.18214711205476
    },
    "status": "scheduled",
    "createdAt": "2025-10-27T21:46:43.625Z"
  },
  {
    "id": "apt-1762471018002-150",
    "repId": "rep59",
    "date": "2025-11-07",
    "timeSlot": "2pm",
    "customerName": "Emily White",
    "customerPhone": "915-609-8551",
    "customerEmail": "emily.white@email.com",
    "address": {
      "street": "4063 Pine St",
      "city": "GREENVILLE",
      "state": "TX",
      "zip": "75401",
      "lat": 32.88300352333247,
      "lng": -97.07621775989597
    },
    "status": "scheduled",
    "createdAt": "2025-10-31T20:12:49.320Z"
  },
  {
    "id": "apt-1762471018002-151",
    "repId": "rep59",
    "date": "2025-11-07",
    "timeSlot": "7pm",
    "customerName": "Daniel Lewis",
    "customerPhone": "325-787-8639",
    "customerEmail": "daniel.lewis@email.com",
    "address": {
      "street": "9798 Elm St",
      "city": "GREENVILLE",
      "state": "TX",
      "zip": "75401",
      "lat": 32.8985584248854,
      "lng": -97.04998486209506
    },
    "status": "scheduled",
    "createdAt": "2025-10-31T21:01:19.093Z"
  },
  {
    "id": "apt-1762471018002-152",
    "repId": "rep60",
    "date": "2025-11-07",
    "timeSlot": "10am",
    "customerName": "Mike Davis",
    "customerPhone": "281-218-4823",
    "customerEmail": "mike.davis@email.com",
    "address": {
      "street": "604 Maple Dr",
      "city": "Dallas",
      "state": "TX",
      "zip": "75212",
      "lat": 32.99589825552797,
      "lng": -96.93389431687667
    },
    "status": "scheduled",
    "createdAt": "2025-10-28T10:59:10.252Z"
  },
  {
    "id": "apt-1762471018002-153",
    "repId": "rep60",
    "date": "2025-11-07",
    "timeSlot": "7pm",
    "customerName": "David Lee",
    "customerPhone": "817-472-4650",
    "customerEmail": "david.lee@email.com",
    "address": {
      "street": "1565 Maple Dr",
      "city": "Dallas",
      "state": "TX",
      "zip": "75212",
      "lat": 33.04209259926351,
      "lng": -96.91233517056298
    },
    "status": "scheduled",
    "createdAt": "2025-11-06T20:56:02.418Z"
  },
  {
    "id": "apt-1762471018002-154",
    "repId": "rep61",
    "date": "2025-11-07",
    "timeSlot": "10am",
    "customerName": "Kimberly Crump",
    "customerPhone": "501-406-4717",
    "customerEmail": "kimberly.crump@email.com",
    "address": {
      "street": "304 Pine St",
      "city": "Bentonville",
      "state": "AR",
      "zip": "72712",
      "lat": 34.59069967917241,
      "lng": -92.33604372174018
    },
    "status": "scheduled",
    "createdAt": "2025-10-21T05:27:03.962Z"
  },
  {
    "id": "apt-1762471018002-155",
    "repId": "rep61",
    "date": "2025-11-07",
    "timeSlot": "2pm",
    "customerName": "Lauren Allen",
    "customerPhone": "479-898-8506",
    "customerEmail": "lauren.allen@email.com",
    "address": {
      "street": "8303 Oak Ave",
      "city": "Bentonville",
      "state": "AR",
      "zip": "72712",
      "lat": 34.67748899261995,
      "lng": -92.37406120694253
    },
    "status": "scheduled",
    "createdAt": "2025-10-21T12:54:43.301Z"
  },
  {
    "id": "apt-1762471018002-156",
    "repId": "rep61",
    "date": "2025-11-07",
    "timeSlot": "7pm",
    "customerName": "Amanda Johnson",
    "customerPhone": "501-634-1905",
    "customerEmail": "amanda.johnson@email.com",
    "address": {
      "street": "4903 Oak Ave",
      "city": "Bentonville",
      "state": "AR",
      "zip": "72712",
      "lat": 34.63789002313891,
      "lng": -92.39497602900938
    },
    "status": "scheduled",
    "createdAt": "2025-10-27T19:08:04.128Z"
  },
  {
    "id": "apt-1762471018002-157",
    "repId": "rep62",
    "date": "2025-11-07",
    "timeSlot": "10am",
    "customerName": "Eric Rodriguez",
    "customerPhone": "501-901-7697",
    "customerEmail": "eric.rodriguez@email.com",
    "address": {
      "street": "6055 Main St",
      "city": "Hot Springs",
      "state": "AR",
      "zip": "71913",
      "lat": 34.7251097621227,
      "lng": -92.35995686202973
    },
    "status": "scheduled",
    "createdAt": "2025-10-29T12:39:55.925Z"
  },
  {
    "id": "apt-1762471018002-158",
    "repId": "rep63",
    "date": "2025-11-07",
    "timeSlot": "2pm",
    "customerName": "Melissa Scott",
    "customerPhone": "318-656-9342",
    "customerEmail": "melissa.scott@email.com",
    "address": {
      "street": "2529 Maple Dr",
      "city": "Benton",
      "state": "LA",
      "zip": "71006",
      "lat": 30.55969558864847,
      "lng": -91.17806194203924
    },
    "status": "scheduled",
    "createdAt": "2025-10-21T06:44:30.644Z"
  },
  {
    "id": "apt-1762471018002-159",
    "repId": "rep64",
    "date": "2025-11-07",
    "timeSlot": "2pm",
    "customerName": "Angela Martinez",
    "customerPhone": "256-538-8580",
    "customerEmail": "angela.martinez@email.com",
    "address": {
      "street": "6601 Elm St",
      "city": "Leeds",
      "state": "AL",
      "zip": "35094",
      "lat": 33.48961591652904,
      "lng": -86.64207429834262
    },
    "status": "scheduled",
    "createdAt": "2025-10-22T16:41:11.114Z"
  },
  {
    "id": "apt-1762471018002-160",
    "repId": "rep64",
    "date": "2025-11-07",
    "timeSlot": "7pm",
    "customerName": "Daniel Lewis",
    "customerPhone": "251-659-0263",
    "customerEmail": "daniel.lewis@email.com",
    "address": {
      "street": "577 Park Blvd",
      "city": "Leeds",
      "state": "AL",
      "zip": "35094",
      "lat": 33.49755651953123,
      "lng": -86.70733745329716
    },
    "status": "scheduled",
    "createdAt": "2025-10-28T02:25:41.675Z"
  },
  {
    "id": "apt-1762471018002-161",
    "repId": "rep65",
    "date": "2025-11-07",
    "timeSlot": "10am",
    "customerName": "Brandon White",
    "customerPhone": "214-981-2633",
    "customerEmail": "brandon.white@email.com",
    "address": {
      "street": "3498 Pine St",
      "city": "Houston",
      "state": "TX",
      "zip": "77069",
      "lat": 32.8089018012399,
      "lng": -96.72034800473052
    },
    "status": "scheduled",
    "createdAt": "2025-10-22T03:42:12.628Z"
  },
  {
    "id": "apt-1762471018002-162",
    "repId": "rep66",
    "date": "2025-11-07",
    "timeSlot": "2pm",
    "customerName": "Jason Turner",
    "customerPhone": "214-472-4660",
    "customerEmail": "jason.turner@email.com",
    "address": {
      "street": "6017 Main St",
      "city": "Tyler",
      "state": "TX",
      "zip": "75709",
      "lat": 32.98742963628927,
      "lng": -96.81625457406032
    },
    "status": "scheduled",
    "createdAt": "2025-10-28T08:22:09.969Z"
  },
  {
    "id": "apt-1762471018002-163",
    "repId": "rep66",
    "date": "2025-11-07",
    "timeSlot": "7pm",
    "customerName": "Ashley Clark",
    "customerPhone": "430-612-5418",
    "customerEmail": "ashley.clark@email.com",
    "address": {
      "street": "3386 Pine St",
      "city": "Tyler",
      "state": "TX",
      "zip": "75709",
      "lat": 32.97003655656522,
      "lng": -96.77347621088917
    },
    "status": "scheduled",
    "createdAt": "2025-10-24T20:42:41.997Z"
  },
  {
    "id": "apt-1762471018002-164",
    "repId": "rep67",
    "date": "2025-11-07",
    "timeSlot": "2pm",
    "customerName": "Jennifer Martinez",
    "customerPhone": "615-677-5259",
    "customerEmail": "jennifer.martinez@email.com",
    "address": {
      "street": "9733 Cedar Ln",
      "city": "Sequatchie",
      "state": "TN",
      "zip": "37374",
      "lat": 35.93641926533504,
      "lng": -86.7218226568198
    },
    "status": "scheduled",
    "createdAt": "2025-10-19T16:13:14.596Z"
  },
  {
    "id": "apt-1762471018002-165",
    "repId": "rep67",
    "date": "2025-11-07",
    "timeSlot": "7pm",
    "customerName": "David Lee",
    "customerPhone": "901-618-9955",
    "customerEmail": "david.lee@email.com",
    "address": {
      "street": "7686 Main St",
      "city": "Sequatchie",
      "state": "TN",
      "zip": "37374",
      "lat": 35.91189203350579,
      "lng": -86.70918954921652
    },
    "status": "scheduled",
    "createdAt": "2025-10-30T07:20:29.219Z"
  },
  {
    "id": "apt-1762471018002-166",
    "repId": "rep69",
    "date": "2025-11-07",
    "timeSlot": "2pm",
    "customerName": "Nicole Green",
    "customerPhone": "770-632-6823",
    "customerEmail": "nicole.green@email.com",
    "address": {
      "street": "3472 Cedar Ln",
      "city": "Morrow",
      "state": "GA",
      "zip": "30260",
      "lat": 33.60807771005849,
      "lng": -84.36691076921393
    },
    "status": "scheduled",
    "createdAt": "2025-10-18T05:01:52.006Z"
  },
  {
    "id": "apt-1762471018002-167",
    "repId": "rep69",
    "date": "2025-11-07",
    "timeSlot": "7pm",
    "customerName": "Kevin Brown",
    "customerPhone": "478-513-5438",
    "customerEmail": "kevin.brown@email.com",
    "address": {
      "street": "2007 Cedar Ln",
      "city": "Morrow",
      "state": "GA",
      "zip": "30260",
      "lat": 33.56172825838054,
      "lng": -84.3614889684968
    },
    "status": "scheduled",
    "createdAt": "2025-10-27T00:32:28.989Z"
  },
  {
    "id": "apt-1762471018002-168",
    "repId": "rep70",
    "date": "2025-11-07",
    "timeSlot": "10am",
    "customerName": "Kimberly Crump",
    "customerPhone": "731-715-6896",
    "customerEmail": "kimberly.crump@email.com",
    "address": {
      "street": "9332 Main St",
      "city": "Millington",
      "state": "TN",
      "zip": "38053",
      "lat": 36.16799415230205,
      "lng": -86.7255300414978
    },
    "status": "scheduled",
    "createdAt": "2025-10-26T14:39:06.414Z"
  },
  {
    "id": "apt-1762471018002-169",
    "repId": "rep70",
    "date": "2025-11-07",
    "timeSlot": "2pm",
    "customerName": "Robert Taylor",
    "customerPhone": "931-636-0507",
    "customerEmail": "robert.taylor@email.com",
    "address": {
      "street": "2614 Park Blvd",
      "city": "Millington",
      "state": "TN",
      "zip": "38053",
      "lat": 36.181069190523594,
      "lng": -86.65721003653572
    },
    "status": "scheduled",
    "createdAt": "2025-10-29T15:20:50.909Z"
  },
  {
    "id": "apt-1762471018002-170",
    "repId": "rep70",
    "date": "2025-11-07",
    "timeSlot": "7pm",
    "customerName": "Angela Martinez",
    "customerPhone": "901-221-6471",
    "customerEmail": "angela.martinez@email.com",
    "address": {
      "street": "6106 Main St",
      "city": "Millington",
      "state": "TN",
      "zip": "38053",
      "lat": 36.11522055000247,
      "lng": -86.73880468537615
    },
    "status": "scheduled",
    "createdAt": "2025-10-21T19:19:14.317Z"
  },
  {
    "id": "apt-1762471018002-171",
    "repId": "rep72",
    "date": "2025-11-07",
    "timeSlot": "10am",
    "customerName": "David Lee",
    "customerPhone": "470-653-7129",
    "customerEmail": "david.lee@email.com",
    "address": {
      "street": "7517 Maple Dr",
      "city": "Canton",
      "state": "GA",
      "zip": "30114",
      "lat": 33.70865895921312,
      "lng": -84.40043489836592
    },
    "status": "scheduled",
    "createdAt": "2025-10-26T20:14:46.350Z"
  },
  {
    "id": "apt-1762471018002-172",
    "repId": "rep72",
    "date": "2025-11-07",
    "timeSlot": "2pm",
    "customerName": "Ashley Clark",
    "customerPhone": "229-497-3137",
    "customerEmail": "ashley.clark@email.com",
    "address": {
      "street": "7692 Cedar Ln",
      "city": "Canton",
      "state": "GA",
      "zip": "30114",
      "lat": 33.65692094767841,
      "lng": -84.40285064587529
    },
    "status": "scheduled",
    "createdAt": "2025-10-27T06:39:30.433Z"
  },
  {
    "id": "apt-1762471018002-173",
    "repId": "rep73",
    "date": "2025-11-07",
    "timeSlot": "7pm",
    "customerName": "Jessica Moore",
    "customerPhone": "918-217-0761",
    "customerEmail": "jessica.moore@email.com",
    "address": {
      "street": "2283 Pine St",
      "city": "Owasso",
      "state": "OK",
      "zip": "74055",
      "lat": 35.46061296508565,
      "lng": -97.45066148475173
    },
    "status": "scheduled",
    "createdAt": "2025-10-24T18:15:16.865Z"
  },
  {
    "id": "apt-1762471018002-174",
    "repId": "rep74",
    "date": "2025-11-07",
    "timeSlot": "10am",
    "customerName": "Ashley Clark",
    "customerPhone": "409-956-4248",
    "customerEmail": "ashley.clark@email.com",
    "address": {
      "street": "8904 Cedar Ln",
      "city": "Conroe",
      "state": "TX",
      "zip": "77384",
      "lat": 32.66345965550654,
      "lng": -96.84754762259449
    },
    "status": "scheduled",
    "createdAt": "2025-11-02T19:02:36.219Z"
  },
  {
    "id": "apt-1762471018002-175",
    "repId": "rep74",
    "date": "2025-11-07",
    "timeSlot": "7pm",
    "customerName": "Samantha Lee",
    "customerPhone": "430-978-2530",
    "customerEmail": "samantha.lee@email.com",
    "address": {
      "street": "312 Cedar Ln",
      "city": "Conroe",
      "state": "TX",
      "zip": "77384",
      "lat": 32.68738845760406,
      "lng": -96.90186656441625
    },
    "status": "scheduled",
    "createdAt": "2025-10-19T13:18:16.671Z"
  },
  {
    "id": "apt-1762471018002-176",
    "repId": "rep76",
    "date": "2025-11-07",
    "timeSlot": "10am",
    "customerName": "Eric Rodriguez",
    "customerPhone": "331-646-6632",
    "customerEmail": "eric.rodriguez@email.com",
    "address": {
      "street": "7859 Main St",
      "city": "Chester",
      "state": "IL",
      "zip": "62233",
      "lat": 38.429680494722994,
      "lng": -90.23688130129624
    },
    "status": "scheduled",
    "createdAt": "2025-10-19T19:42:56.980Z"
  },
  {
    "id": "apt-1762471018002-177",
    "repId": "rep78",
    "date": "2025-11-07",
    "timeSlot": "2pm",
    "customerName": "Mike Davis",
    "customerPhone": "731-401-7090",
    "customerEmail": "mike.davis@email.com",
    "address": {
      "street": "9814 Oak Ave",
      "city": "Collierville",
      "state": "TN",
      "zip": "38017",
      "lat": 36.262334885192004,
      "lng": -86.862929084238
    },
    "status": "scheduled",
    "createdAt": "2025-10-30T11:41:07.977Z"
  },
  {
    "id": "apt-1762471018002-178",
    "repId": "rep79",
    "date": "2025-11-07",
    "timeSlot": "2pm",
    "customerName": "Stephanie King",
    "customerPhone": "865-954-4273",
    "customerEmail": "stephanie.king@email.com",
    "address": {
      "street": "7026 Pine St",
      "city": "Knoxville",
      "state": "TN",
      "zip": "37918",
      "lat": 36.37609603043112,
      "lng": -86.70783751075248
    },
    "status": "scheduled",
    "createdAt": "2025-10-25T16:09:28.045Z"
  },
  {
    "id": "apt-1762471018002-179",
    "repId": "rep80",
    "date": "2025-11-07",
    "timeSlot": "2pm",
    "customerName": "Michael Thompson",
    "customerPhone": "423-511-7604",
    "customerEmail": "michael.thompson@email.com",
    "address": {
      "street": "7656 Oak Ave",
      "city": "Lebanon",
      "state": "TN",
      "zip": "37087",
      "lat": 36.229283743120845,
      "lng": -87.05515601749066
    },
    "status": "scheduled",
    "createdAt": "2025-10-22T04:03:31.807Z"
  },
  {
    "id": "apt-1762471018002-180",
    "repId": "rep80",
    "date": "2025-11-07",
    "timeSlot": "7pm",
    "customerName": "Daniel Lewis",
    "customerPhone": "731-696-5731",
    "customerEmail": "daniel.lewis@email.com",
    "address": {
      "street": "3812 Park Blvd",
      "city": "Lebanon",
      "state": "TN",
      "zip": "37087",
      "lat": 36.1880294496823,
      "lng": -87.04103969801409
    },
    "status": "scheduled",
    "createdAt": "2025-10-17T00:26:39.611Z"
  },
  {
    "id": "apt-1762471018002-181",
    "repId": "rep81",
    "date": "2025-11-07",
    "timeSlot": "7pm",
    "customerName": "Ryan Mitchell",
    "customerPhone": "555-515-1644",
    "customerEmail": "ryan.mitchell@email.com",
    "address": {
      "street": "7592 Elm St",
      "city": "Albany",
      "state": "Ga",
      "zip": "31605",
      "lat": 33.57252636688588,
      "lng": -84.35506214309174
    },
    "status": "scheduled",
    "createdAt": "2025-10-25T16:39:57.060Z"
  },
  {
    "id": "apt-1762471018002-182",
    "repId": "rep82",
    "date": "2025-11-07",
    "timeSlot": "7pm",
    "customerName": "Lauren Allen",
    "customerPhone": "229-944-4060",
    "customerEmail": "lauren.allen@email.com",
    "address": {
      "street": "4448 Park Blvd",
      "city": "Johns Creek",
      "state": "GA",
      "zip": "30097",
      "lat": 33.48729974197595,
      "lng": -84.59866191157847
    },
    "status": "scheduled",
    "createdAt": "2025-10-22T09:21:11.182Z"
  },
  {
    "id": "apt-1762471018002-183",
    "repId": "rep83",
    "date": "2025-11-07",
    "timeSlot": "10am",
    "customerName": "Kimberly Crump",
    "customerPhone": "555-542-3499",
    "customerEmail": "kimberly.crump@email.com",
    "address": {
      "street": "9508 Oak Ave",
      "city": "Birmingham",
      "state": "Al",
      "zip": "36110",
      "lat": 33.91414504558327,
      "lng": -84.58316699358305
    },
    "status": "scheduled",
    "createdAt": "2025-11-04T10:11:03.866Z"
  },
  {
    "id": "apt-1762471018002-184",
    "repId": "rep84",
    "date": "2025-11-07",
    "timeSlot": "10am",
    "customerName": "Ashley Clark",
    "customerPhone": "555-652-3682",
    "customerEmail": "ashley.clark@email.com",
    "address": {
      "street": "6121 Elm St",
      "city": "Sicklerville",
      "state": "NJ",
      "zip": "08081",
      "lat": 39.885884187971044,
      "lng": -74.68518092521728
    },
    "status": "scheduled",
    "createdAt": "2025-10-26T02:18:59.932Z"
  },
  {
    "id": "apt-1762471018002-185",
    "repId": "rep84",
    "date": "2025-11-07",
    "timeSlot": "2pm",
    "customerName": "Emily White",
    "customerPhone": "555-520-5491",
    "customerEmail": "emily.white@email.com",
    "address": {
      "street": "3633 Cedar Ln",
      "city": "Sicklerville",
      "state": "NJ",
      "zip": "08081",
      "lat": 39.895341268817184,
      "lng": -74.63348825115655
    },
    "status": "scheduled",
    "createdAt": "2025-11-04T06:30:32.418Z"
  },
  {
    "id": "apt-1762471018002-186",
    "repId": "rep85",
    "date": "2025-11-07",
    "timeSlot": "10am",
    "customerName": "Matthew Hall",
    "customerPhone": "228-819-7738",
    "customerEmail": "matthew.hall@email.com",
    "address": {
      "street": "5963 Pine St",
      "city": "Columbus",
      "state": "MS",
      "zip": "39701",
      "lat": 32.19589516360366,
      "lng": -90.03211513818673
    },
    "status": "scheduled",
    "createdAt": "2025-10-22T18:39:48.317Z"
  },
  {
    "id": "apt-1762471018002-187",
    "repId": "rep85",
    "date": "2025-11-07",
    "timeSlot": "2pm",
    "customerName": "Lauren Allen",
    "customerPhone": "769-998-3607",
    "customerEmail": "lauren.allen@email.com",
    "address": {
      "street": "2227 Park Blvd",
      "city": "Columbus",
      "state": "MS",
      "zip": "39701",
      "lat": 32.18304938528248,
      "lng": -90.01228146065856
    },
    "status": "scheduled",
    "createdAt": "2025-10-17T19:56:08.114Z"
  },
  {
    "id": "apt-1762471018002-188",
    "repId": "rep88",
    "date": "2025-11-07",
    "timeSlot": "10am",
    "customerName": "Samantha Lee",
    "customerPhone": "580-797-6106",
    "customerEmail": "samantha.lee@email.com",
    "address": {
      "street": "7809 Cedar Ln",
      "city": "Oklahoma City",
      "state": "OK",
      "zip": "73134",
      "lat": 35.50456245881298,
      "lng": -97.59564373258624
    },
    "status": "scheduled",
    "createdAt": "2025-10-30T18:23:13.168Z"
  },
  {
    "id": "apt-1762471018002-189",
    "repId": "rep88",
    "date": "2025-11-07",
    "timeSlot": "2pm",
    "customerName": "Lauren Allen",
    "customerPhone": "918-428-4923",
    "customerEmail": "lauren.allen@email.com",
    "address": {
      "street": "9671 Main St",
      "city": "Oklahoma City",
      "state": "OK",
      "zip": "73134",
      "lat": 35.53140960956119,
      "lng": -97.57504076610054
    },
    "status": "scheduled",
    "createdAt": "2025-10-21T02:42:38.818Z"
  },
  {
    "id": "apt-1762471018002-190",
    "repId": "rep89",
    "date": "2025-11-07",
    "timeSlot": "10am",
    "customerName": "Amanda Johnson",
    "customerPhone": "769-698-9726",
    "customerEmail": "amanda.johnson@email.com",
    "address": {
      "street": "8946 Main St",
      "city": "Southaven",
      "state": "MS",
      "zip": "38671",
      "lat": 32.07834092736155,
      "lng": -89.9831690535003
    },
    "status": "scheduled",
    "createdAt": "2025-10-29T20:37:14.081Z"
  },
  {
    "id": "apt-1762471018002-191",
    "repId": "rep89",
    "date": "2025-11-07",
    "timeSlot": "2pm",
    "customerName": "Joshua Young",
    "customerPhone": "662-578-8511",
    "customerEmail": "joshua.young@email.com",
    "address": {
      "street": "9979 Maple Dr",
      "city": "Southaven",
      "state": "MS",
      "zip": "38671",
      "lat": 32.11847068545359,
      "lng": -90.02165964549489
    },
    "status": "scheduled",
    "createdAt": "2025-10-30T07:20:07.408Z"
  },
  {
    "id": "apt-1762471018002-192",
    "repId": "rep91",
    "date": "2025-11-07",
    "timeSlot": "2pm",
    "customerName": "Sarah Johnson",
    "customerPhone": "662-905-2262",
    "customerEmail": "sarah.johnson@email.com",
    "address": {
      "street": "9935 Cedar Ln",
      "city": "Southaven",
      "state": "MS",
      "zip": "38671",
      "lat": 32.45622577377072,
      "lng": -90.08623432536592
    },
    "status": "scheduled",
    "createdAt": "2025-10-24T18:40:50.870Z"
  },
  {
    "id": "apt-1762471018002-193",
    "repId": "rep92",
    "date": "2025-11-07",
    "timeSlot": "2pm",
    "customerName": "Robert Taylor",
    "customerPhone": "662-735-8265",
    "customerEmail": "robert.taylor@email.com",
    "address": {
      "street": "3911 Oak Ave",
      "city": "Greenville",
      "state": "MS",
      "zip": "38701",
      "lat": 32.16704829715173,
      "lng": -90.20670917191791
    },
    "status": "scheduled",
    "createdAt": "2025-10-22T10:38:32.714Z"
  },
  {
    "id": "apt-1762471018002-194",
    "repId": "rep93",
    "date": "2025-11-07",
    "timeSlot": "10am",
    "customerName": "Angela Martinez",
    "customerPhone": "601-966-4914",
    "customerEmail": "angela.martinez@email.com",
    "address": {
      "street": "2080 Main St",
      "city": "Pearl",
      "state": "MS",
      "zip": "39208",
      "lat": 32.38563545627381,
      "lng": -90.27329983685087
    },
    "status": "scheduled",
    "createdAt": "2025-10-23T16:44:40.353Z"
  },
  {
    "id": "apt-1762471018002-195",
    "repId": "rep93",
    "date": "2025-11-07",
    "timeSlot": "2pm",
    "customerName": "Kimberly Crump",
    "customerPhone": "662-372-4724",
    "customerEmail": "kimberly.crump@email.com",
    "address": {
      "street": "6632 Park Blvd",
      "city": "Pearl",
      "state": "MS",
      "zip": "39208",
      "lat": 32.31469982813323,
      "lng": -90.27266271530071
    },
    "status": "scheduled",
    "createdAt": "2025-10-26T04:35:57.698Z"
  },
  {
    "id": "apt-1762471018002-196",
    "repId": "rep94",
    "date": "2025-11-07",
    "timeSlot": "10am",
    "customerName": "Emily White",
    "customerPhone": "228-628-4215",
    "customerEmail": "emily.white@email.com",
    "address": {
      "street": "8365 Maple Dr",
      "city": "Pearl",
      "state": "MS",
      "zip": "39208",
      "lat": 32.52500872040434,
      "lng": -90.42181380981116
    },
    "status": "scheduled",
    "createdAt": "2025-10-24T08:58:30.670Z"
  },
  {
    "id": "apt-1762471018002-197",
    "repId": "rep95",
    "date": "2025-11-07",
    "timeSlot": "7pm",
    "customerName": "Sarah Johnson",
    "customerPhone": "504-800-8621",
    "customerEmail": "sarah.johnson@email.com",
    "address": {
      "street": "6233 Maple Dr",
      "city": "Shreveport",
      "state": "LA",
      "zip": "71101",
      "lat": 30.49026907937963,
      "lng": -91.19866497857426
    },
    "status": "scheduled",
    "createdAt": "2025-11-03T17:27:37.304Z"
  },
  {
    "id": "apt-1762471018002-198",
    "repId": "rep97",
    "date": "2025-11-07",
    "timeSlot": "10am",
    "customerName": "Robert Taylor",
    "customerPhone": "601-330-7890",
    "customerEmail": "robert.taylor@email.com",
    "address": {
      "street": "3583 Cedar Ln",
      "city": "Southaven",
      "state": "MS",
      "zip": "38671",
      "lat": 32.1831320998783,
      "lng": -90.31043058963552
    },
    "status": "scheduled",
    "createdAt": "2025-10-23T23:36:34.430Z"
  },
  {
    "id": "apt-1762471018002-199",
    "repId": "rep98",
    "date": "2025-11-07",
    "timeSlot": "10am",
    "customerName": "Michael Thompson",
    "customerPhone": "573-476-4991",
    "customerEmail": "michael.thompson@email.com",
    "address": {
      "street": "7989 Cedar Ln",
      "city": "Kansas City",
      "state": "MO",
      "zip": "64117",
      "lat": 38.83449146782592,
      "lng": -90.02004266196117
    },
    "status": "scheduled",
    "createdAt": "2025-10-24T03:28:08.839Z"
  },
  {
    "id": "apt-1762471018002-200",
    "repId": "rep1",
    "date": "2025-11-08",
    "timeSlot": "2pm",
    "customerName": "Emily White",
    "customerPhone": "762-417-4936",
    "customerEmail": "emily.white@email.com",
    "address": {
      "street": "5784 Pine St",
      "city": "KENNESAW",
      "state": "GA",
      "zip": "30144",
      "lat": 33.81573250876852,
      "lng": -84.29773773230629
    },
    "status": "scheduled",
    "createdAt": "2025-10-30T09:20:49.468Z"
  },