[
  {
    "id": "apt-1762474995857-0",
    "repId": "rep32",
    "date": "2025-11-10",
    "timeSlot": "10am",
    "customerName": "Michelle Walker",
    "customerPhone": "214-564-5139",
    "customerEmail": "michelle.walker@email.com",
    "address": {
      "street": "3943 Main St",
      "city": "Spring",
      "state": "TX",
      "zip": "77388",
      "lat": 30.049913,
      "lng": -95.427276
    },
    "status": "scheduled",
    "createdAt": "2025-11-02T15:43:00.249Z"
  },
  {
    "id": "apt-1762474995857-1",
    "repId": "rep45",
    "date": "2025-11-07",
    "timeSlot": "10am",
    "customerName": "Emily White",
    "customerPhone": "214-295-5713",
    "customerEmail": "emily.white@email.com",
    "address": {
      "street": "1591 Main St",
      "city": "Anna",
      "state": "TX",
      "zip": "75409",
      "lat": 33.304485,
      "lng": -96.540919
    },
    "status": "scheduled",
    "createdAt": "2025-11-01T21:14:04.540Z"
  },
  {
    "id": "apt-1762474995857-2",
    "repId": "rep49",
    "date": "2025-11-08",
    "timeSlot": "10am",
    "customerName": "Michael Thompson",
    "customerPhone": "205-644-4274",
    "customerEmail": "michael.thompson@email.com",
    "address": {
      "street": "3873 Main St",
      "city": "Tuscaloosa",
      "state": "AL",
      "zip": "35406",
      "lat": 33.298468,
      "lng": -87.554771
    },
    "status": "scheduled",
    "createdAt": "2025-11-03T05:38:48.003Z"
  },
  {
    "id": "apt-1762474995857-3",
    "repId": "rep92",
    "date": "2025-11-07",
    "timeSlot": "7pm",
    "customerName": "Lisa Brown",
    "customerPhone": "601-278-8882",
    "customerEmail": "lisa.brown@email.com",
    "address": {
      "street": "6261 Main St",
      "city": "Greenville",
      "state": "MS",
      "zip": "38701",
      "lat": 33.467737,
      "lng": -91.146949
    },
    "status": "scheduled",
    "createdAt": "2025-11-06T23:24:49.599Z"
  },
  {
    "id": "apt-1762474995857-4",
    "repId": "rep52",
    "date": "2025-11-13",
    "timeSlot": "10am",
    "customerName": "Amanda Garcia",
    "customerPhone": "615-928-8724",
    "customerEmail": "amanda.garcia@email.com",
    "address": {
      "street": "3475 Main St",
      "city": "Memphis",
      "state": "TN",
      "zip": "38103",
      "lat": 35.145491,
      "lng": -89.981283
    },
    "status": "scheduled",
    "createdAt": "2025-11-04T23:10:57.059Z"
  },
  {
    "id": "apt-1762474995857-5",
    "repId": "rep83",
    "date": "2025-11-11",
    "timeSlot": "7pm",
    "customerName": "James Anderson",
    "customerPhone": "555-750-0895",
    "customerEmail": "james.anderson@email.com",
    "address": {
      "street": "5013 Main St",
      "city": "Birmingham",
      "state": "Al",
      "zip": "36110",
      "lat": 33.60668,
      "lng": -86.796532
    },
    "status": "scheduled",
    "createdAt": "2025-11-03T12:47:09.460Z"
  },
  {
    "id": "apt-1762474995857-6",
    "repId": "rep67",
    "date": "2025-11-10",
    "timeSlot": "10am",
    "customerName": "Lauren Allen",
    "customerPhone": "615-874-1546",
    "customerEmail": "lauren.allen@email.com",
    "address": {
      "street": "6706 Main St",
      "city": "Sequatchie",
      "state": "TN",
      "zip": "37374",
      "lat": 35.182576,
      "lng": -85.611833
    },
    "status": "scheduled",
    "createdAt": "2025-11-05T05:22:01.920Z"
  },
  {
    "id": "apt-1762474995857-7",
    "repId": "rep53",
    "date": "2025-11-09",
    "timeSlot": "10am",
    "customerName": "Michael Thompson",
    "customerPhone": "205-796-6385",
    "customerEmail": "michael.thompson@email.com",
    "address": {
      "street": "1716 Main St",
      "city": "Athens",
      "state": "AL",
      "zip": "35611",
      "lat": 34.814467,
      "lng": -87.024321
    },
    "status": "scheduled",
    "createdAt": "2025-10-31T13:34:16.312Z"
  },
  {
    "id": "apt-1762474995857-8",
    "repId": "rep48",
    "date": "2025-11-07",
    "timeSlot": "10am",
    "customerName": "Stephanie King",
    "customerPhone": "615-953-1590",
    "customerEmail": "stephanie.king@email.com",
    "address": {
      "street": "7120 Main St",
      "city": "Jackson",
      "state": "TN",
      "zip": "38305",
      "lat": 35.563859,
      "lng": -88.911383
    },
    "status": "scheduled",
    "createdAt": "2025-11-06T00:22:45.041Z"
  },
  {
    "id": "apt-1762474995857-9",
    "repId": "rep29",
    "date": "2025-11-13",
    "timeSlot": "10am",
    "customerName": "Jennifer Martinez",
    "customerPhone": "404-322-6184",
    "customerEmail": "jennifer.martinez@email.com",
    "address": {
      "street": "1370 Main St",
      "city": "Albany",
      "state": "GA",
      "zip": "31705",
      "lat": 31.615094,
      "lng": -84.147869
    },
    "status": "scheduled",
    "createdAt": "2025-11-01T14:48:21.927Z"
  },
  {
    "id": "apt-1762474995857-10",
    "repId": "rep1",
    "date": "2025-11-07",
    "timeSlot": "10am",
    "customerName": "Christopher Harris",
    "customerPhone": "404-992-1316",
    "customerEmail": "christopher.harris@email.com",
    "address": {
      "street": "7388 Main St",
      "city": "KENNESAW",
      "state": "GA",
      "zip": "30144",
      "lat": 33.942933,
      "lng": -84.568548
    },
    "status": "scheduled",
    "createdAt": "2025-11-02T08:53:49.222Z"
  },
  {
    "id": "apt-1762474995857-11",
    "repId": "rep91",
    "date": "2025-11-07",
    "timeSlot": "7pm",
    "customerName": "James Anderson",
    "customerPhone": "601-412-2120",
    "customerEmail": "james.anderson@email.com",
    "address": {
      "street": "5641 Main St",
      "city": "Southaven",
      "state": "MS",
      "zip": "38671",
      "lat": 34.94697,
      "lng": -89.909771
    },
    "status": "scheduled",
    "createdAt": "2025-11-02T07:52:27.665Z"
  },
  {
    "id": "apt-1762474995857-12",
    "repId": "rep70",
    "date": "2025-11-09",
    "timeSlot": "2pm",
    "customerName": "Michelle Walker",
    "customerPhone": "615-544-3398",
    "customerEmail": "michelle.walker@email.com",
    "address": {
      "street": "2154 Main St",
      "city": "Millington",
      "state": "TN",
      "zip": "38053",
      "lat": 35.351941,
      "lng": -89.961025
    },
    "status": "scheduled",
    "createdAt": "2025-11-03T21:56:39.093Z"
  },
  {
    "id": "apt-1762474995857-13",
    "repId": "rep98",
    "date": "2025-11-07",
    "timeSlot": "7pm",
    "customerName": "Joshua Young",
    "customerPhone": "314-453-5339",
    "customerEmail": "joshua.young@email.com",
    "address": {
      "street": "8473 Main St",
      "city": "Kansas City",
      "state": "MO",
      "zip": "64117",
      "lat": 39.177847,
      "lng": -94.577236
    },
    "status": "scheduled",
    "createdAt": "2025-11-02T17:39:14.061Z"
  },
  {
    "id": "apt-1762474995857-14",
    "repId": "rep33",
    "date": "2025-11-11",
    "timeSlot": "7pm",
    "customerName": "Michael Thompson",
    "customerPhone": "615-897-7092",
    "customerEmail": "michael.thompson@email.com",
    "address": {
      "street": "5425 Main St",
      "city": "Atoka",
      "state": "TN",
      "zip": "38004",
      "lat": 35.43704,
      "lng": -89.801081
    },
    "status": "scheduled",
    "createdAt": "2025-11-04T23:06:01.984Z"
  },
  {
    "id": "apt-1762474995857-15",
    "repId": "rep9",
    "date": "2025-11-07",
    "timeSlot": "2pm",
    "customerName": "Joshua Young",
    "customerPhone": "404-942-9539",
    "customerEmail": "joshua.young@email.com",
    "address": {
      "street": "3096 Main St",
      "city": "SOUTH FULTON",
      "state": "GA",
      "zip": "30349",
      "lat": 33.715437,
      "lng": -84.532199
    },
    "status": "scheduled",
    "createdAt": "2025-11-01T04:48:19.374Z"
  },
  {
    "id": "apt-1762474995857-16",
    "repId": "rep47",
    "date": "2025-11-13",
    "timeSlot": "7pm",
    "customerName": "Robert Taylor",
    "customerPhone": "214-489-2720",
    "customerEmail": "robert.taylor@email.com",
    "address": {
      "street": "2699 Main St",
      "city": "Coppell",
      "state": "TX",
      "zip": "75019",
      "lat": 33.025292,
      "lng": -96.921525
    },
    "status": "scheduled",
    "createdAt": "2025-10-31T09:40:00.061Z"
  },
  {
    "id": "apt-1762474995857-17",
    "repId": "rep66",
    "date": "2025-11-07",
    "timeSlot": "10am",
    "customerName": "Sarah Johnson",
    "customerPhone": "214-397-9654",
    "customerEmail": "sarah.johnson@email.com",
    "address": {
      "street": "8270 Main St",
      "city": "Tyler",
      "state": "TX",
      "zip": "75709",
      "lat": 32.436699,
      "lng": -95.291118
    },
    "status": "scheduled",
    "createdAt": "2025-11-02T19:33:09.720Z"
  },
  {
    "id": "apt-1762474995857-18",
    "repId": "rep58",
    "date": "2025-11-07",
    "timeSlot": "2pm",
    "customerName": "Lisa Brown",
    "customerPhone": "501-762-3632",
    "customerEmail": "lisa.brown@email.com",
    "address": {
      "street": "8041 Main St",
      "city": "Royal",
      "state": "AR",
      "zip": "71968",
      "lat": 34.586659,
      "lng": -93.201972
    },
    "status": "scheduled",
    "createdAt": "2025-11-02T10:58:44.878Z"
  },
  {
    "id": "apt-1762474995857-19",
    "repId": "rep81",
    "date": "2025-11-11",
    "timeSlot": "2pm",
    "customerName": "Joshua Young",
    "customerPhone": "555-933-0061",
    "customerEmail": "joshua.young@email.com",
    "address": {
      "street": "9409 Main St",
      "city": "Albany",
      "state": "Ga",
      "zip": "31605",
      "lat": 31.529096,
      "lng": -84.084169
    },
    "status": "scheduled",
    "createdAt": "2025-11-04T14:43:48.174Z"
  }
]