[
  {
    "id": "apt-1762470855321-0",
    "repId": "rep1",
    "date": "2025-11-06",
    "timeSlot": "10am",
    "customerName": "Samantha Lee",
    "customerPhone": "912-305-0817",
    "customerEmail": "samantha.lee@email.com",
    "address": {
      "street": "1950 Pine St",
      "city": "KENNESAW",
      "state": "GA",
      "zip": "30144",
      "lat": 33.781169667403404,
      "lng": -84.37225643649796
    },
    "status": "scheduled",
    "createdAt": "2025-10-30T02:41:02.114Z"
  },
  {
    "id": "apt-1762470855321-1",
    "repId": "rep1",
    "date": "2025-11-06",
    "timeSlot": "2pm",
    "customerName": "Kevin Brown",
    "customerPhone": "912-957-2971",
    "customerEmail": "kevin.brown@email.com",
    "address": {
      "street": "9281 Elm St",
      "city": "KENNESAW",
      "state": "GA",
      "zip": "30144",
      "lat": 33.83534969776519,
      "lng": -84.30087147763068
    },
    "status": "scheduled",
    "createdAt": "2025-10-19T17:35:18.388Z"
  },
  {
    "id": "apt-1762470855321-2",
    "repId": "rep2",
    "date": "2025-11-06",
    "timeSlot": "7pm",
    "customerName": "Eric Rodriguez",
    "customerPhone": "512-582-7703",
    "customerEmail": "eric.rodriguez@email.com",
    "address": {
      "street": "6144 Oak Ave",
      "city": "MCKINNEY",
      "state": "TX",
      "zip": "75071",
      "lat": 32.674652920472056,
      "lng": -96.99465533631762
    },
    "status": "scheduled",
    "createdAt": "2025-10-18T22:42:42.738Z"
  },
  {
    "id": "apt-1762470855321-3",
    "repId": "rep3",
    "date": "2025-11-06",
    "timeSlot": "10am",
    "customerName": "Joshua Young",
    "customerPhone": "478-352-2152",
    "customerEmail": "joshua.young@email.com",
    "address": {
      "street": "7661 Maple Dr",
      "city": "Douglasville",
      "state": "GA",
      "zip": "30135",
      "lat": 33.96224350227206,
      "lng": -84.29918436232246
    },
    "status": "scheduled",
    "createdAt": "2025-11-04T18:15:36.175Z"
  },
  {
    "id": "apt-1762470855321-4",
    "repId": "rep3",
    "date": "2025-11-06",
    "timeSlot": "2pm",
    "customerName": "Mike Davis",
    "customerPhone": "470-650-2409",
    "customerEmail": "mike.davis@email.com",
    "address": {
      "street": "476 Park Blvd",
      "city": "Douglasville",
      "state": "GA",
      "zip": "30135",
      "lat": 33.94921607758424,
      "lng": -84.37386057247456
    },
    "status": "scheduled",
    "createdAt": "2025-10-18T06:54:31.126Z"
  },
  {
    "id": "apt-1762470855321-5",
    "repId": "rep3",
    "date": "2025-11-06",
    "timeSlot": "7pm",
    "customerName": "Nicole Green",
    "customerPhone": "770-216-3895",
    "customerEmail": "nicole.green@email.com",
    "address": {
      "street": "7337 Main St",
      "city": "Douglasville",
      "state": "GA",
      "zip": "30135",
      "lat": 33.914089691060155,
      "lng": -84.32719200312052
    },
    "status": "scheduled",
    "createdAt": "2025-10-14T23:25:05.281Z"
  },
  {
    "id": "apt-1762470855321-6",
    "repId": "rep5",
    "date": "2025-11-06",
    "timeSlot": "10am",
    "customerName": "Rachel Adams",
    "customerPhone": "501-659-1231",
    "customerEmail": "rachel.adams@email.com",
    "address": {
      "street": "1269 Park Blvd",
      "city": "RUSSELLVILLE",
      "state": "AR",
      "zip": "72802",
      "lat": 34.96478922605543,
      "lng": -92.30166001554649
    },
    "status": "scheduled",
    "createdAt": "2025-10-12T17:58:29.048Z"
  },
  {
    "id": "apt-1762470855321-7",
    "repId": "rep5",
    "date": "2025-11-06",
    "timeSlot": "7pm",
    "customerName": "Rachel Adams",
    "customerPhone": "501-857-8355",
    "customerEmail": "rachel.adams@email.com",
    "address": {
      "street": "7941 Pine St",
      "city": "RUSSELLVILLE",
      "state": "AR",
      "zip": "72802",
      "lat": 34.913624690308154,
      "lng": -92.30223753498818
    },
    "status": "scheduled",
    "createdAt": "2025-10-11T14:57:15.585Z"
  },
  {
    "id": "apt-1762470855321-8",
    "repId": "rep6",
    "date": "2025-11-06",
    "timeSlot": "10am",
    "customerName": "Daniel Lewis",
    "customerPhone": "601-638-8609",
    "customerEmail": "daniel.lewis@email.com",
    "address": {
      "street": "8004 Elm St",
      "city": "HORN LAKE",
      "state": "MS",
      "zip": "38637",
      "lat": 32.10058952393052,
      "lng": -90.11862184293841
    },
    "status": "scheduled",
    "createdAt": "2025-10-24T12:46:12.798Z"
  },
  {
    "id": "apt-1762470855321-9",
    "repId": "rep6",
    "date": "2025-11-06",
    "timeSlot": "7pm",
    "customerName": "Nicole Green",
    "customerPhone": "662-350-5661",
    "customerEmail": "nicole.green@email.com",
    "address": {
      "street": "8731 Park Blvd",
      "city": "HORN LAKE",
      "state": "MS",
      "zip": "38637",
      "lat": 32.11262600842782,
      "lng": -90.10153389714705
    },
    "status": "scheduled",
    "createdAt": "2025-10-12T01:37:35.589Z"
  },
  {
    "id": "apt-1762470855321-10",
    "repId": "rep7",
    "date": "2025-11-06",
    "timeSlot": "10am",
    "customerName": "James Anderson",
    "customerPhone": "256-801-0850",
    "customerEmail": "james.anderson@email.com",
    "address": {
      "street": "1192 Cedar Ln",
      "city": "Alabaster",
      "state": "AL",
      "zip": "35114",
      "lat": 33.275133508920106,
      "lng": -86.60112735547798
    },
    "status": "scheduled",
    "createdAt": "2025-10-17T20:41:50.080Z"
  },
  {
    "id": "apt-1762470855321-11",
    "repId": "rep7",
    "date": "2025-11-06",
    "timeSlot": "2pm",
    "customerName": "Tom Wilson",
    "customerPhone": "251-780-8959",
    "customerEmail": "tom.wilson@email.com",
    "address": {
      "street": "9311 Oak Ave",
      "city": "Alabaster",
      "state": "AL",
      "zip": "35114",
      "lat": 33.2588539573025,
      "lng": -86.5727823794017
    },
    "status": "scheduled",
    "createdAt": "2025-10-19T18:25:12.927Z"
  },
  {
    "id": "apt-1762470855321-12",
    "repId": "rep8",
    "date": "2025-11-06",
    "timeSlot": "10am",
    "customerName": "Christopher Harris",
    "customerPhone": "478-664-1227",
    "customerEmail": "christopher.harris@email.com",
    "address": {
      "street": "7404 Elm St",
      "city": "FAYETTEVILLE",
      "state": "GA",
      "zip": "30214",
      "lat": 33.83641361829845,
      "lng": -84.55341943761852
    },
    "status": "scheduled",
    "createdAt": "2025-10-29T18:52:10.279Z"
  },
  {
    "id": "apt-1762470855321-13",
    "repId": "rep8",
    "date": "2025-11-06",
    "timeSlot": "2pm",
    "customerName": "James Anderson",
    "customerPhone": "770-565-5982",
    "customerEmail": "james.anderson@email.com",
    "address": {
      "street": "600 Oak Ave",
      "city": "FAYETTEVILLE",
      "state": "GA",
      "zip": "30214",
      "lat": 33.91199366276309,
      "lng": -84.50624289094878
    },
    "status": "scheduled",
    "createdAt": "2025-10-21T01:47:07.407Z"
  },
  {
    "id": "apt-1762470855321-14",
    "repId": "rep9",
    "date": "2025-11-06",
    "timeSlot": "10am",
    "customerName": "Mike Davis",
    "customerPhone": "706-202-0748",
    "customerEmail": "mike.davis@email.com",
    "address": {
      "street": "7833 Elm St",
      "city": "SOUTH FULTON",
      "state": "GA",
      "zip": "30349",
      "lat": 33.96057118785029,
      "lng": -84.2163597203084
    },
    "status": "scheduled",
    "createdAt": "2025-10-12T12:53:38.222Z"
  },
  {
    "id": "apt-1762470855321-15",
    "repId": "rep9",
    "date": "2025-11-06",
    "timeSlot": "7pm",
    "customerName": "Angela Martinez",
    "customerPhone": "770-467-8407",
    "customerEmail": "angela.martinez@email.com",
    "address": {
      "street": "4424 Elm St",
      "city": "SOUTH FULTON",
      "state": "GA",
      "zip": "30349",
      "lat": 33.989586539290116,
      "lng": -84.1655664511536
    },
    "status": "scheduled",
    "createdAt": "2025-10-16T21:42:55.499Z"
  },
  {
    "id": "apt-1762470855321-16",
    "repId": "rep10",
    "date": "2025-11-06",
    "timeSlot": "10am",
    "customerName": "Jennifer Martinez",
    "customerPhone": "770-497-9256",
    "customerEmail": "jennifer.martinez@email.com",
    "address": {
      "street": "9350 Maple Dr",
      "city": "NEWMAN",
      "state": "GA",
      "zip": "30265",
      "lat": 33.91479905827868,
      "lng": -84.11434855623736
    },
    "status": "scheduled",
    "createdAt": "2025-11-03T11:06:29.750Z"
  },
  {
    "id": "apt-1762470855321-17",
    "repId": "rep11",
    "date": "2025-11-06",
    "timeSlot": "10am",
    "customerName": "Samantha Lee",
    "customerPhone": "817-284-2890",
    "customerEmail": "samantha.lee@email.com",
    "address": {
      "street": "3713 Oak Ave",
      "city": "Houston",
      "state": "TX",
      "zip": "77090",
      "lat": 32.852619341136055,
      "lng": -96.79781989072099
    },
    "status": "scheduled",
    "createdAt": "2025-10-27T16:56:37.247Z"
  },
  {
    "id": "apt-1762470855321-18",
    "repId": "rep11",
    "date": "2025-11-06",
    "timeSlot": "7pm",
    "customerName": "Matthew Hall",
    "customerPhone": "817-538-2318",
    "customerEmail": "matthew.hall@email.com",
    "address": {
      "street": "7108 Maple Dr",
      "city": "Houston",
      "state": "TX",
      "zip": "77090",
      "lat": 32.79508059402671,
      "lng": -96.71411896159417
    },
    "status": "scheduled",
    "createdAt": "2025-10-17T10:12:28.206Z"
  },
  {
    "id": "apt-1762470855321-19",
    "repId": "rep12",
    "date": "2025-11-06",
    "timeSlot": "7pm",
    "customerName": "Tom Wilson",
    "customerPhone": "334-424-5542",
    "customerEmail": "tom.wilson@email.com",
    "address": {
      "street": "8554 Maple Dr",
      "city": "Talladega",
      "state": "AL",
      "zip": "35160",
      "lat": 33.356803538034434,
      "lng": -86.53329615299565
    },
    "status": "scheduled",
    "createdAt": "2025-11-02T19:50:57.660Z"
  },
  {
    "id": "apt-1762470855321-20",
    "repId": "rep13",
    "date": "2025-11-06",
    "timeSlot": "10am",
    "customerName": "David Lee",
    "customerPhone": "980-939-1273",
    "customerEmail": "david.lee@email.com",
    "address": {
      "street": "2619 Main St",
      "city": "GRAHAM",
      "state": "NC",
      "zip": "27253",
      "lat": 35.3066640206414,
      "lng": -80.63531436247993
    },
    "status": "scheduled",
    "createdAt": "2025-10-19T14:47:58.925Z"
  },
  {
    "id": "apt-1762470855321-21",
    "repId": "rep13",
    "date": "2025-11-06",
    "timeSlot": "7pm",
    "customerName": "Eric Rodriguez",
    "customerPhone": "336-887-7223",
    "customerEmail": "eric.rodriguez@email.com",
    "address": {
      "street": "5009 Maple Dr",
      "city": "GRAHAM",
      "state": "NC",
      "zip": "27253",
      "lat": 35.33161146047223,
      "lng": -80.71985463170016
    },
    "status": "scheduled",
    "createdAt": "2025-10-20T14:13:22.234Z"
  },
  {
    "id": "apt-1762470855321-22",
    "repId": "rep14",
    "date": "2025-11-06",
    "timeSlot": "10am",
    "customerName": "Daniel Lewis",
    "customerPhone": "251-821-3913",
    "customerEmail": "daniel.lewis@email.com",
    "address": {
      "street": "4801 Elm St",
      "city": "Opelika",
      "state": "AL",
      "zip": "36804",
      "lat": 33.41406955383884,
      "lng": -86.78601206170464
    },
    "status": "scheduled",
    "createdAt": "2025-11-02T18:04:57.217Z"
  },
  {
    "id": "apt-1762470855321-23",
    "repId": "rep14",
    "date": "2025-11-06",
    "timeSlot": "2pm",
    "customerName": "Melissa Scott",
    "customerPhone": "205-209-5012",
    "customerEmail": "melissa.scott@email.com",
    "address": {
      "street": "4078 Cedar Ln",
      "city": "Opelika",
      "state": "AL",
      "zip": "36804",
      "lat": 33.435959257731966,
      "lng": -86.80447685017448
    },
    "status": "scheduled",
    "createdAt": "2025-10-18T02:08:50.149Z"
  },
  {
    "id": "apt-1762470855321-24",
    "repId": "rep15",
    "date": "2025-11-06",
    "timeSlot": "10am",
    "customerName": "Lisa Brown",
    "customerPhone": "770-917-0656",
    "customerEmail": "lisa.brown@email.com",
    "address": {
      "street": "2419 Park Blvd",
      "city": "SYLVESTER",
      "state": "GA",
      "zip": "31791",
      "lat": 33.60872887089244,
      "lng": -84.5986003416443
    },
    "status": "scheduled",
    "createdAt": "2025-11-05T09:44:44.581Z"
  },
  {
    "id": "apt-1762470855321-25",
    "repId": "rep15",
    "date": "2025-11-06",
    "timeSlot": "7pm",
    "customerName": "Brian Wright",
    "customerPhone": "229-591-9836",
    "customerEmail": "brian.wright@email.com",
    "address": {
      "street": "7324 Park Blvd",
      "city": "SYLVESTER",
      "state": "GA",
      "zip": "31791",
      "lat": 33.64952102626245,
      "lng": -84.54982780951467
    },
    "status": "scheduled",
    "createdAt": "2025-11-02T06:49:10.212Z"
  },
  {
    "id": "apt-1762470855321-26",
    "repId": "rep16",
    "date": "2025-11-06",
    "timeSlot": "10am",
    "customerName": "Daniel Lewis",
    "customerPhone": "337-893-4410",
    "customerEmail": "daniel.lewis@email.com",
    "address": {
      "street": "5109 Cedar Ln",
      "city": "BENTON",
      "state": "LA",
      "zip": "71006",
      "lat": 30.60136356040757,
      "lng": -91.35816095790011
    },
    "status": "scheduled",
    "createdAt": "2025-10-28T16:38:19.365Z"
  },
  {
    "id": "apt-1762470855321-27",
    "repId": "rep16",
    "date": "2025-11-06",
    "timeSlot": "7pm",
    "customerName": "Tom Wilson",
    "customerPhone": "225-361-6082",
    "customerEmail": "tom.wilson@email.com",
    "address": {
      "street": "7328 Pine St",
      "city": "BENTON",
      "state": "LA",
      "zip": "71006",
      "lat": 30.61125888734638,
      "lng": -91.40583584918815
    },
    "status": "scheduled",
    "createdAt": "2025-10-12T23:16:33.803Z"
  },
  {
    "id": "apt-1762470855321-28",
    "repId": "rep17",
    "date": "2025-11-06",
    "timeSlot": "10am",
    "customerName": "Jessica Moore",
    "customerPhone": "615-465-9390",
    "customerEmail": "jessica.moore@email.com",
    "address": {
      "street": "2135 Oak Ave",
      "city": "BARTLETT",
      "state": "TN",
      "zip": "38135",
      "lat": 36.23896858063475,
      "lng": -86.82908507452802
    },
    "status": "scheduled",
    "createdAt": "2025-10-16T04:50:40.974Z"
  },
  {
    "id": "apt-1762470855321-29",
    "repId": "rep17",
    "date": "2025-11-06",
    "timeSlot": "2pm",
    "customerName": "Brandon White",
    "customerPhone": "615-297-6057",
    "customerEmail": "brandon.white@email.com",
    "address": {
      "street": "2264 Oak Ave",
      "city": "BARTLETT",
      "state": "TN",
      "zip": "38135",
      "lat": 36.31683185209065,
      "lng": -86.85743263644946
    },
    "status": "scheduled",
    "createdAt": "2025-10-08T17:37:47.812Z"
  },
  {
    "id": "apt-1762470855321-30",
    "repId": "rep18",
    "date": "2025-11-06",
    "timeSlot": "10am",
    "customerName": "Tom Wilson",
    "customerPhone": "281-534-0647",
    "customerEmail": "tom.wilson@email.com",
    "address": {
      "street": "5163 Elm St",
      "city": "Houston",
      "state": "TX",
      "zip": "77002",
      "lat": 32.93819122455074,
      "lng": -96.80335766291617
    },
    "status": "scheduled",
    "createdAt": "2025-10-12T18:32:45.589Z"
  },
  {
    "id": "apt-1762470855321-31",
    "repId": "rep18",
    "date": "2025-11-06",
    "timeSlot": "2pm",
    "customerName": "Lisa Brown",
    "customerPhone": "806-522-7872",
    "customerEmail": "lisa.brown@email.com",
    "address": {
      "street": "1719 Park Blvd",
      "city": "Houston",
      "state": "TX",
      "zip": "77002",
      "lat": 32.995726557824696,
      "lng": -96.81426614876044
    },
    "status": "scheduled",
    "createdAt": "2025-10-10T15:26:37.416Z"
  },
  {
    "id": "apt-1762470855321-32",
    "repId": "rep19",
    "date": "2025-11-06",
    "timeSlot": "10am",
    "customerName": "Lisa Brown",
    "customerPhone": "225-710-8914",
    "customerEmail": "lisa.brown@email.com",
    "address": {
      "street": "7248 Cedar Ln",
      "city": "BATON ROUGE",
      "state": "LA",
      "zip": "70817",
      "lat": 30.725230094462606,
      "lng": -90.98517280600174
    },
    "status": "scheduled",
    "createdAt": "2025-10-08T03:54:42.410Z"
  },
  {
    "id": "apt-1762470855321-33",
    "repId": "rep19",
    "date": "2025-11-06",
    "timeSlot": "2pm",
    "customerName": "Mike Davis",
    "customerPhone": "225-982-5929",
    "customerEmail": "mike.davis@email.com",
    "address": {
      "street": "2834 Pine St",
      "city": "BATON ROUGE",
      "state": "LA",
      "zip": "70817",
      "lat": 30.729368543357563,
      "lng": -91.00252221452057
    },
    "status": "scheduled",
    "createdAt": "2025-10-17T12:40:41.016Z"
  },
  {
    "id": "apt-1762470855321-34",
    "repId": "rep20",
    "date": "2025-11-06",
    "timeSlot": "10am",
    "customerName": "Stephanie King",
    "customerPhone": "803-761-9599",
    "customerEmail": "stephanie.king@email.com",
    "address": {
      "street": "5575 Oak Ave",
      "city": "LADSON",
      "state": "SC",
      "zip": "29456",
      "lat": 33.85981541244853,
      "lng": -81.05430941416112
    },
    "status": "scheduled",
    "createdAt": "2025-10-21T08:05:09.995Z"
  },
  {
    "id": "apt-1762470855321-35",
    "repId": "rep20",
    "date": "2025-11-06",
    "timeSlot": "2pm",
    "customerName": "Jessica Moore",
    "customerPhone": "854-371-2005",
    "customerEmail": "jessica.moore@email.com",
    "address": {
      "street": "9637 Elm St",
      "city": "LADSON",
      "state": "SC",
      "zip": "29456",
      "lat": 33.87510021153303,
      "lng": -80.99062561588828
    },
    "status": "scheduled",
    "createdAt": "2025-10-09T06:29:59.249Z"
  },
  {
    "id": "apt-1762470855321-36",
    "repId": "rep21",
    "date": "2025-11-06",
    "timeSlot": "10am",
    "customerName": "Brandon White",
    "customerPhone": "404-317-0378",
    "customerEmail": "brandon.white@email.com",
    "address": {
      "street": "4009 Pine St",
      "city": "Macon",
      "state": "GA",
      "zip": "31216",
      "lat": 33.549692984117605,
      "lng": -84.25423105802236
    },
    "status": "scheduled",
    "createdAt": "2025-10-08T12:53:57.075Z"
  },
  {
    "id": "apt-1762470855321-37",
    "repId": "rep21",
    "date": "2025-11-06",
    "timeSlot": "2pm",
    "customerName": "Christopher Harris",
    "customerPhone": "770-324-4248",
    "customerEmail": "christopher.harris@email.com",
    "address": {
      "street": "9663 Maple Dr",
      "city": "Macon",
      "state": "GA",
      "zip": "31216",
      "lat": 33.50462761272962,
      "lng": -84.31841347792628
    },
    "status": "scheduled",
    "createdAt": "2025-10-31T03:18:34.269Z"
  },
  {
    "id": "apt-1762470855321-38",
    "repId": "rep22",
    "date": "2025-11-06",
    "timeSlot": "2pm",
    "customerName": "Christopher Harris",
    "customerPhone": "256-206-5074",
    "customerEmail": "christopher.harris@email.com",
    "address": {
      "street": "2856 Oak Ave",
      "city": "Vestavia Hills",
      "state": "AL",
      "zip": "35216",
      "lat": 33.35568240182667,
      "lng": -86.80171923661823
    },
    "status": "scheduled",
    "createdAt": "2025-11-02T23:44:13.470Z"
  },
  {
    "id": "apt-1762470855321-39",
    "repId": "rep23",
    "date": "2025-11-06",
    "timeSlot": "2pm",
    "customerName": "Angela Martinez",
    "customerPhone": "864-922-7493",
    "customerEmail": "angela.martinez@email.com",
    "address": {
      "street": "2299 Park Blvd",
      "city": "Pelion",
      "state": "SC",
      "zip": "29123",
      "lat": 34.16171838120634,
      "lng": -81.0721639690414
    },
    "status": "scheduled",
    "createdAt": "2025-10-25T09:00:51.272Z"
  },
  {
    "id": "apt-1762470855321-40",
    "repId": "rep24",
    "date": "2025-11-06",
    "timeSlot": "10am",
    "customerName": "Angela Martinez",
    "customerPhone": "251-510-7641",
    "customerEmail": "angela.martinez@email.com",
    "address": {
      "street": "7415 Main St",
      "city": "Saraland",
      "state": "AL",
      "zip": "36571",
      "lat": 33.610280556707444,
      "lng": -86.56772157072523
    },
    "status": "scheduled",
    "createdAt": "2025-10-11T06:45:30.901Z"
  },
  {
    "id": "apt-1762470855321-41",
    "repId": "rep24",
    "date": "2025-11-06",
    "timeSlot": "7pm",
    "customerName": "Daniel Lewis",
    "customerPhone": "251-908-5885",
    "customerEmail": "daniel.lewis@email.com",
    "address": {
      "street": "4490 Elm St",
      "city": "Saraland",
      "state": "AL",
      "zip": "36571",
      "lat": 33.61455782007779,
      "lng": -86.60530110454981
    },
    "status": "scheduled",
    "createdAt": "2025-10-18T12:35:50.775Z"
  },
  {
    "id": "apt-1762470855321-42",
    "repId": "rep25",
    "date": "2025-11-06",
    "timeSlot": "2pm",
    "customerName": "Ryan Mitchell",
    "customerPhone": "478-268-4245",
    "customerEmail": "ryan.mitchell@email.com",
    "address": {
      "street": "1379 Park Blvd",
      "city": "Macon",
      "state": "GA",
      "zip": "31210",
      "lat": 33.633707996188875,
      "lng": -84.33563044115529
    },
    "status": "scheduled",
    "createdAt": "2025-10-22T12:54:21.525Z"
  },
  {
    "id": "apt-1762470855321-43",
    "repId": "rep26",
    "date": "2025-11-06",
    "timeSlot": "10am",
    "customerName": "Amanda Johnson",
    "customerPhone": "762-820-2899",
    "customerEmail": "amanda.johnson@email.com",
    "address": {
      "street": "6956 Oak Ave",
      "city": "McDonough",
      "state": "GA",
      "zip": "30252",
      "lat": 33.78982474005145,
      "lng": -84.39218817550321
    },
    "status": "scheduled",
    "createdAt": "2025-10-09T12:19:25.628Z"
  },
  {
    "id": "apt-1762470855321-44",
    "repId": "rep26",
    "date": "2025-11-06",
    "timeSlot": "2pm",
    "customerName": "Ashley Clark",
    "customerPhone": "678-495-1803",
    "customerEmail": "ashley.clark@email.com",
    "address": {
      "street": "5144 Park Blvd",
      "city": "McDonough",
      "state": "GA",
      "zip": "30252",
      "lat": 33.80029419347806,
      "lng": -84.36620861984733
    },
    "status": "scheduled",
    "createdAt": "2025-10-26T15:06:25.848Z"
  },
  {
    "id": "apt-1762470855321-45",
    "repId": "rep26",
    "date": "2025-11-06",
    "timeSlot": "7pm",
    "customerName": "Matthew Hall",
    "customerPhone": "770-307-7423",
    "customerEmail": "matthew.hall@email.com",
    "address": {
      "street": "7765 Main St",
      "city": "McDonough",
      "state": "GA",
      "zip": "30252",
      "lat": 33.76045901972367,
      "lng": -84.44310687396398
    },
    "status": "scheduled",
    "createdAt": "2025-11-05T22:23:01.695Z"
  },
  {
    "id": "apt-1762470855321-46",
    "repId": "rep27",
    "date": "2025-11-06",
    "timeSlot": "2pm",
    "customerName": "Sarah Johnson",
    "customerPhone": "432-600-8979",
    "customerEmail": "sarah.johnson@email.com",
    "address": {
      "street": "6815 Pine St",
      "city": "Dallas",
      "state": "TX",
      "zip": "75248",
      "lat": 32.53442248571788,
      "lng": -96.80962474760732
    },
    "status": "scheduled",
    "createdAt": "2025-11-04T01:04:47.588Z"
  },
  {
    "id": "apt-1762470855321-47",
    "repId": "rep27",
    "date": "2025-11-06",
    "timeSlot": "7pm",
    "customerName": "Stephanie King",
    "customerPhone": "979-945-5373",
    "customerEmail": "stephanie.king@email.com",
    "address": {
      "street": "4000 Maple Dr",
      "city": "Dallas",
      "state": "TX",
      "zip": "75248",
      "lat": 32.5604524081716,
      "lng": -96.81184911514868
    },
    "status": "scheduled",
    "createdAt": "2025-10-20T10:36:09.322Z"
  },
  {
    "id": "apt-1762470855321-48",
    "repId": "rep29",
    "date": "2025-11-06",
    "timeSlot": "2pm",
    "customerName": "Stephanie King",
    "customerPhone": "762-681-6274",
    "customerEmail": "stephanie.king@email.com",
    "address": {
      "street": "4311 Elm St",
      "city": "Albany",
      "state": "GA",
      "zip": "31705",
      "lat": 33.61525736850098,
      "lng": -84.25253768564224
    },
    "status": "scheduled",
    "createdAt": "2025-10-30T11:30:26.471Z"
  },
  {
    "id": "apt-1762470855321-49",
    "repId": "rep29",
    "date": "2025-11-06",
    "timeSlot": "7pm",
    "customerName": "Angela Martinez",
    "customerPhone": "404-867-5364",
    "customerEmail": "angela.martinez@email.com",
    "address": {
      "street": "3114 Oak Ave",
      "city": "Albany",
      "state": "GA",
      "zip": "31705",
      "lat": 33.705837657407876,
      "lng": -84.23597698137945
    },
    "status": "scheduled",
    "createdAt": "2025-10-09T16:17:32.054Z"
  },
  {
    "id": "apt-1762470855321-50",
    "repId": "rep30",
    "date": "2025-11-06",
    "timeSlot": "10am",
    "customerName": "Samantha Lee",
    "customerPhone": "512-994-1075",
    "customerEmail": "samantha.lee@email.com",
    "address": {
      "street": "2312 Cedar Ln",
      "city": "Richmond",
      "state": "TX",
      "zip": "77407",
      "lat": 32.986306265529755,
      "lng": -96.9416664633549
    },
    "status": "scheduled",
    "createdAt": "2025-10-30T20:58:55.366Z"
  },
  {
    "id": "apt-1762470855321-51",
    "repId": "rep30",
    "date": "2025-11-06",
    "timeSlot": "2pm",
    "customerName": "Daniel Lewis",
    "customerPhone": "903-748-4435",
    "customerEmail": "daniel.lewis@email.com",
    "address": {
      "street": "8639 Elm St",
      "city": "Richmond",
      "state": "TX",
      "zip": "77407",
      "lat": 32.99392721147642,
      "lng": -96.96919306831641
    },
    "status": "scheduled",
    "createdAt": "2025-10-21T18:24:34.896Z"
  },
  {
    "id": "apt-1762470855321-52",
    "repId": "rep31",
    "date": "2025-11-06",
    "timeSlot": "10am",
    "customerName": "Jessica Moore",
    "customerPhone": "423-933-8239",
    "customerEmail": "jessica.moore@email.com",
    "address": {
      "street": "7883 Pine St",
      "city": "Memphis",
      "state": "TN",
      "zip": "38125",
      "lat": 35.89976259066225,
      "lng": -86.85637124260141
    },
    "status": "scheduled",
    "createdAt": "2025-10-25T17:25:37.866Z"
  },
  {
    "id": "apt-1762470855321-53",
    "repId": "rep31",
    "date": "2025-11-06",
    "timeSlot": "7pm",
    "customerName": "James Anderson",
    "customerPhone": "865-964-2721",
    "customerEmail": "james.anderson@email.com",
    "address": {
      "street": "6548 Elm St",
      "city": "Memphis",
      "state": "TN",
      "zip": "38125",
      "lat": 35.94731716313265,
      "lng": -86.89904955263808
    },
    "status": "scheduled",
    "createdAt": "2025-10-12T04:31:15.527Z"
  },
  {
    "id": "apt-1762470855321-54",
    "repId": "rep32",
    "date": "2025-11-06",
    "timeSlot": "10am",
    "customerName": "Lauren Allen",
    "customerPhone": "210-253-0568",
    "customerEmail": "lauren.allen@email.com",
    "address": {
      "street": "5732 Cedar Ln",
      "city": "Spring",
      "state": "TX",
      "zip": "77388",
      "lat": 32.65963155527502,
      "lng": -96.9039721378751
    },
    "status": "scheduled",
    "createdAt": "2025-10-31T06:19:09.109Z"
  },
  {
    "id": "apt-1762470855321-55",
    "repId": "rep32",
    "date": "2025-11-06",
    "timeSlot": "2pm",
    "customerName": "Joshua Young",
    "customerPhone": "830-969-1277",
    "customerEmail": "joshua.young@email.com",
    "address": {
      "street": "2383 Elm St",
      "city": "Spring",
      "state": "TX",
      "zip": "77388",
      "lat": 32.69158382462385,
      "lng": -96.9545614045417
    },
    "status": "scheduled",
    "createdAt": "2025-10-20T13:44:21.283Z"
  },
  {
    "id": "apt-1762470855321-56",
    "repId": "rep32",
    "date": "2025-11-06",
    "timeSlot": "7pm",
    "customerName": "Melissa Scott",
    "customerPhone": "409-206-3198",
    "customerEmail": "melissa.scott@email.com",
    "address": {
      "street": "9996 Pine St",
      "city": "Spring",
      "state": "TX",
      "zip": "77388",
      "lat": 32.64587883152783,
      "lng": -96.9174865651839
    },
    "status": "scheduled",
    "createdAt": "2025-10-08T04:37:51.454Z"
  },
  {
    "id": "apt-1762470855321-57",
    "repId": "rep33",
    "date": "2025-11-06",
    "timeSlot": "10am",
    "customerName": "Matthew Hall",
    "customerPhone": "901-961-5800",
    "customerEmail": "matthew.hall@email.com",
    "address": {
      "street": "6562 Oak Ave",
      "city": "Atoka",
      "state": "TN",
      "zip": "38004",
      "lat": 36.25008883673655,
      "lng": -87.07342478839527
    },
    "status": "scheduled",
    "createdAt": "2025-10-22T00:24:20.474Z"
  },
  {
    "id": "apt-1762470855321-58",
    "repId": "rep33",
    "date": "2025-11-06",
    "timeSlot": "2pm",
    "customerName": "Sarah Johnson",
    "customerPhone": "629-684-1809",
    "customerEmail": "sarah.johnson@email.com",
    "address": {
      "street": "7003 Park Blvd",
      "city": "Atoka",
      "state": "TN",
      "zip": "38004",
      "lat": 36.17269044981209,
      "lng": -87.00029295214112
    },
    "status": "scheduled",
    "createdAt": "2025-10-22T13:29:30.929Z"
  },
  {
    "id": "apt-1762470855321-59",
    "repId": "rep34",
    "date": "2025-11-06",
    "timeSlot": "10am",
    "customerName": "Robert Taylor",
    "customerPhone": "615-891-9705",
    "customerEmail": "robert.taylor@email.com",
    "address": {
      "street": "3800 Maple Dr",
      "city": "Memphis",
      "state": "TN",
      "zip": "38127",
      "lat": 36.22124915056979,
      "lng": -86.92750541261259
    },
    "status": "scheduled",
    "createdAt": "2025-11-06T04:27:13.020Z"
  },
  {
    "id": "apt-1762470855321-60",
    "repId": "rep34",
    "date": "2025-11-06",
    "timeSlot": "2pm",
    "customerName": "David Lee",
    "customerPhone": "423-670-2491",
    "customerEmail": "david.lee@email.com",
    "address": {
      "street": "6473 Main St",
      "city": "Memphis",
      "state": "TN",
      "zip": "38127",
      "lat": 36.17410748960822,
      "lng": -86.90316237912587
    },
    "status": "scheduled",
    "createdAt": "2025-10-30T21:06:16.377Z"
  },
  {
    "id": "apt-1762470855321-61",
    "repId": "rep34",
    "date": "2025-11-06",
    "timeSlot": "7pm",
    "customerName": "Emily White",
    "customerPhone": "901-938-7778",
    "customerEmail": "emily.white@email.com",
    "address": {
      "street": "9753 Cedar Ln",
      "city": "Memphis",
      "state": "TN",
      "zip": "38127",
      "lat": 36.1443798683611,
      "lng": -86.95524653564325
    },
    "status": "scheduled",
    "createdAt": "2025-10-16T00:01:39.053Z"
  },
  {
    "id": "apt-1762470855321-62",
    "repId": "rep35",
    "date": "2025-11-06",
    "timeSlot": "10am",
    "customerName": "Rachel Adams",
    "customerPhone": "662-426-1763",
    "customerEmail": "rachel.adams@email.com",
    "address": {
      "street": "8803 Park Blvd",
      "city": "Olive Branch",
      "state": "MS",
      "zip": "38655",
      "lat": 32.49157413877817,
      "lng": -90.05531858268562
    },
    "status": "scheduled",
    "createdAt": "2025-11-06T04:40:26.430Z"
  },
  {
    "id": "apt-1762470855321-63",
    "repId": "rep36",
    "date": "2025-11-06",
    "timeSlot": "10am",
    "customerName": "Nicole Green",
    "customerPhone": "601-859-9914",
    "customerEmail": "nicole.green@email.com",
    "address": {
      "street": "5223 Park Blvd",
      "city": "Brandon",
      "state": "MS",
      "zip": "39042",
      "lat": 32.372366450299054,
      "lng": -90.0088371445104
    },
    "status": "scheduled",
    "createdAt": "2025-10-15T14:39:45.721Z"
  },
  {
    "id": "apt-1762470855321-64",
    "repId": "rep36",
    "date": "2025-11-06",
    "timeSlot": "7pm",
    "customerName": "Christopher Harris",
    "customerPhone": "601-768-2482",
    "customerEmail": "christopher.harris@email.com",
    "address": {
      "street": "5607 Cedar Ln",
      "city": "Brandon",
      "state": "MS",
      "zip": "39042",
      "lat": 32.35041614906077,
      "lng": -90.04467120328339
    },
    "status": "scheduled",
    "createdAt": "2025-10-11T12:06:47.841Z"
  },
  {
    "id": "apt-1762470855321-65",
    "repId": "rep37",
    "date": "2025-11-06",
    "timeSlot": "10am",
    "customerName": "Matthew Hall",
    "customerPhone": "865-470-6202",
    "customerEmail": "matthew.hall@email.com",
    "address": {
      "street": "5359 Maple Dr",
      "city": "Memphis",
      "state": "TN",
      "zip": "38119",
      "lat": 36.355320420552964,
      "lng": -86.7543840709583
    },
    "status": "scheduled",
    "createdAt": "2025-10-18T20:59:07.303Z"
  },
  {
    "id": "apt-1762470855321-66",
    "repId": "rep37",
    "date": "2025-11-06",
    "timeSlot": "2pm",
    "customerName": "Lauren Allen",
    "customerPhone": "865-303-7643",
    "customerEmail": "lauren.allen@email.com",
    "address": {
      "street": "6561 Pine St",
      "city": "Memphis",
      "state": "TN",
      "zip": "38119",
      "lat": 36.31605329683734,
      "lng": -86.74671676955823
    },
    "status": "scheduled",
    "createdAt": "2025-10-27T02:37:14.239Z"
  },
  {
    "id": "apt-1762470855321-67",
    "repId": "rep37",
    "date": "2025-11-06",
    "timeSlot": "7pm",
    "customerName": "Eric Rodriguez",
    "customerPhone": "615-412-4060",
    "customerEmail": "eric.rodriguez@email.com",
    "address": {
      "street": "3422 Cedar Ln",
      "city": "Memphis",
      "state": "TN",
      "zip": "38119",
      "lat": 36.347646186908456,
      "lng": -86.73958487588256
    },
    "status": "scheduled",
    "createdAt": "2025-11-04T00:17:26.498Z"
  },
  {
    "id": "apt-1762470855321-68",
    "repId": "rep38",
    "date": "2025-11-06",
    "timeSlot": "10am",
    "customerName": "Tom Wilson",
    "customerPhone": "601-590-3032",
    "customerEmail": "tom.wilson@email.com",
    "address": {
      "street": "2939 Main St",
      "city": "Raymond",
      "state": "MS",
      "zip": "39154",
      "lat": 32.46566894899494,
      "lng": -90.20810423341565
    },
    "status": "scheduled",
    "createdAt": "2025-11-04T21:30:08.276Z"
  },
  {
    "id": "apt-1762470855321-69",
    "repId": "rep38",
    "date": "2025-11-06",
    "timeSlot": "2pm",
    "customerName": "Christopher Harris",
    "customerPhone": "769-552-0274",
    "customerEmail": "christopher.harris@email.com",
    "address": {
      "street": "593 Oak Ave",
      "city": "Raymond",
      "state": "MS",
      "zip": "39154",
      "lat": 32.45064879234452,
      "lng": -90.25730543906468
    },
    "status": "scheduled",
    "createdAt": "2025-10-31T07:38:29.060Z"
  },
  {
    "id": "apt-1762470855321-70",
    "repId": "rep39",
    "date": "2025-11-06",
    "timeSlot": "10am",
    "customerName": "Samantha Lee",
    "customerPhone": "769-742-4514",
    "customerEmail": "samantha.lee@email.com",
    "address": {
      "street": "5607 Pine St",
      "city": "Olive Branch",
      "state": "MS",
      "zip": "38654",
      "lat": 32.09865303057803,
      "lng": -89.90651222576254
    },
    "status": "scheduled",
    "createdAt": "2025-10-09T20:47:05.383Z"
  },
  {
    "id": "apt-1762470855321-71",
    "repId": "rep39",
    "date": "2025-11-06",
    "timeSlot": "2pm",
    "customerName": "Eric Rodriguez",
    "customerPhone": "601-219-3705",
    "customerEmail": "eric.rodriguez@email.com",
    "address": {
      "street": "4489 Elm St",
      "city": "Olive Branch",
      "state": "MS",
      "zip": "38654",
      "lat": 32.09230097926207,
      "lng": -89.9538880759423
    },
    "status": "scheduled",
    "createdAt": "2025-10-31T14:39:27.448Z"
  },
  {
    "id": "apt-1762470855321-72",
    "repId": "rep39",
    "date": "2025-11-06",
    "timeSlot": "7pm",
    "customerName": "Emily White",
    "customerPhone": "601-237-9034",
    "customerEmail": "emily.white@email.com",
    "address": {
      "street": "9426 Pine St",
      "city": "Olive Branch",
      "state": "MS",
      "zip": "38654",
      "lat": 32.08769012659038,
      "lng": -89.98890566367953
    },
    "status": "scheduled",
    "createdAt": "2025-10-24T07:47:29.964Z"
  },
  {
    "id": "apt-1762470855321-73",
    "repId": "rep40",
    "date": "2025-11-06",
    "timeSlot": "10am",
    "customerName": "Ryan Mitchell",
    "customerPhone": "769-450-6462",
    "customerEmail": "ryan.mitchell@email.com",
    "address": {
      "street": "867 Main St",
      "city": "Olive Branch",
      "state": "MS",
      "zip": "38654",
      "lat": 32.20892277053851,
      "lng": -90.41672951902797
    },
    "status": "scheduled",
    "createdAt": "2025-10-09T06:56:14.154Z"
  },
  {
    "id": "apt-1762470855321-74",
    "repId": "rep40",
    "date": "2025-11-06",
    "timeSlot": "2pm",
    "customerName": "Amanda Johnson",
    "customerPhone": "769-639-3434",
    "customerEmail": "amanda.johnson@email.com",
    "address": {
      "street": "1312 Pine St",
      "city": "Olive Branch",
      "state": "MS",
      "zip": "38654",
      "lat": 32.19629117719813,
      "lng": -90.3242615306017
    },
    "status": "scheduled",
    "createdAt": "2025-11-03T21:43:38.647Z"
  },
  {
    "id": "apt-1762470855321-75",
    "repId": "rep41",
    "date": "2025-11-06",
    "timeSlot": "7pm",
    "customerName": "Jason Turner",
    "customerPhone": "256-430-5688",
    "customerEmail": "jason.turner@email.com",
    "address": {
      "street": "7032 Oak Ave",
      "city": "Birmingham",
      "state": "AL",
      "zip": "35242",
      "lat": 33.65829262639387,
      "lng": -86.61822140983189
    },
    "status": "scheduled",
    "createdAt": "2025-10-13T11:27:03.007Z"
  },
  {
    "id": "apt-1762470855321-76",
    "repId": "rep42",
    "date": "2025-11-06",
    "timeSlot": "10am",
    "customerName": "Eric Rodriguez",
    "customerPhone": "205-441-1747",
    "customerEmail": "eric.rodriguez@email.com",
    "address": {
      "street": "2348 Park Blvd",
      "city": "Theodore",
      "state": "AL",
      "zip": "36582",
      "lat": 33.42048352512382,
      "lng": -86.87724089165808
    },
    "status": "scheduled",
    "createdAt": "2025-11-04T10:54:41.840Z"
  },
  {
    "id": "apt-1762470855321-77",
    "repId": "rep42",
    "date": "2025-11-06",
    "timeSlot": "7pm",
    "customerName": "Matthew Hall",
    "customerPhone": "205-548-8103",
    "customerEmail": "matthew.hall@email.com",
    "address": {
      "street": "6742 Pine St",
      "city": "Theodore",
      "state": "AL",
      "zip": "36582",
      "lat": 33.46168647119972,
      "lng": -86.91152567966198
    },
    "status": "scheduled",
    "createdAt": "2025-11-02T01:09:09.762Z"
  },
  {
    "id": "apt-1762470855321-78",
    "repId": "rep43",
    "date": "2025-11-06",
    "timeSlot": "10am",
    "customerName": "Amanda Garcia",
    "customerPhone": "803-823-7626",
    "customerEmail": "amanda.garcia@email.com",
    "address": {
      "street": "5488 Main St",
      "city": "North Augusta",
      "state": "SC",
      "zip": "29860",
      "lat": 33.97680671283834,
      "lng": -80.92407068336824
    },
    "status": "scheduled",
    "createdAt": "2025-10-24T22:44:49.764Z"
  },
  {
    "id": "apt-1762470855321-79",
    "repId": "rep43",
    "date": "2025-11-06",
    "timeSlot": "2pm",
    "customerName": "Matthew Hall",
    "customerPhone": "864-207-5570",
    "customerEmail": "matthew.hall@email.com",
    "address": {
      "street": "5164 Elm St",
      "city": "North Augusta",
      "state": "SC",
      "zip": "29860",
      "lat": 33.974973840700066,
      "lng": -80.91535365734477
    },
    "status": "scheduled",
    "createdAt": "2025-10-29T04:26:12.302Z"
  },
  {
    "id": "apt-1762470855321-80",
    "repId": "rep43",
    "date": "2025-11-06",
    "timeSlot": "7pm",
    "customerName": "Tom Wilson",
    "customerPhone": "864-382-8944",
    "customerEmail": "tom.wilson@email.com",
    "address": {
      "street": "5928 Pine St",
      "city": "North Augusta",
      "state": "SC",
      "zip": "29860",
      "lat": 33.96557583457639,
      "lng": -80.88427549890154
    },
    "status": "scheduled",
    "createdAt": "2025-10-31T04:34:00.837Z"
  },
  {
    "id": "apt-1762470855321-81",
    "repId": "rep44",
    "date": "2025-11-06",
    "timeSlot": "2pm",
    "customerName": "Lauren Allen",
    "customerPhone": "318-707-8313",
    "customerEmail": "lauren.allen@email.com",
    "address": {
      "street": "2620 Maple Dr",
      "city": "Covington",
      "state": "LA",
      "zip": "70433",
      "lat": 30.36463500449999,
      "lng": -91.09387317584005
    },
    "status": "scheduled",
    "createdAt": "2025-10-24T13:53:25.778Z"
  },
  {
    "id": "apt-1762470855321-82",
    "repId": "rep44",
    "date": "2025-11-06",
    "timeSlot": "7pm",
    "customerName": "Jennifer Martinez",
    "customerPhone": "318-618-1647",
    "customerEmail": "jennifer.martinez@email.com",
    "address": {
      "street": "187 Cedar Ln",
      "city": "Covington",
      "state": "LA",
      "zip": "70433",
      "lat": 30.397720546015627,
      "lng": -91.11295485604862
    },
    "status": "scheduled",
    "createdAt": "2025-10-30T06:45:52.303Z"
  },
  {
    "id": "apt-1762470855321-83",
    "repId": "rep45",
    "date": "2025-11-06",
    "timeSlot": "10am",
    "customerName": "Kimberly Crump",
    "customerPhone": "832-755-6256",
    "customerEmail": "kimberly.crump@email.com",
    "address": {
      "street": "1109 Main St",
      "city": "Anna",
      "state": "TX",
      "zip": "75409",
      "lat": 32.77643295552447,
      "lng": -97.07582546931985
    },
    "status": "scheduled",
    "createdAt": "2025-10-10T14:16:50.691Z"
  },
  {
    "id": "apt-1762470855321-84",
    "repId": "rep46",
    "date": "2025-11-06",
    "timeSlot": "2pm",
    "customerName": "Michael Thompson",
    "customerPhone": "803-361-2570",
    "customerEmail": "michael.thompson@email.com",
    "address": {
      "street": "1796 Elm St",
      "city": "North Augusta",
      "state": "SC",
      "zip": "29860",
      "lat": 34.12946888447089,
      "lng": -80.99755703558913
    },
    "status": "scheduled",
    "createdAt": "2025-10-30T11:39:41.949Z"
  },
  {
    "id": "apt-1762470855321-85",
    "repId": "rep46",
    "date": "2025-11-06",
    "timeSlot": "7pm",
    "customerName": "Mike Davis",
    "customerPhone": "803-373-1757",
    "customerEmail": "mike.davis@email.com",
    "address": {
      "street": "9694 Pine St",
      "city": "North Augusta",
      "state": "SC",
      "zip": "29860",
      "lat": 34.12752788194399,
      "lng": -80.99032817065434
    },
    "status": "scheduled",
    "createdAt": "2025-11-05T08:36:44.326Z"
  },
  {
    "id": "apt-1762470855321-86",
    "repId": "rep47",
    "date": "2025-11-06",
    "timeSlot": "2pm",
    "customerName": "Stephanie King",
    "customerPhone": "409-240-4779",
    "customerEmail": "stephanie.king@email.com",
    "address": {
      "street": "2597 Oak Ave",
      "city": "Coppell",
      "state": "TX",
      "zip": "75019",
      "lat": 32.957247319972126,
      "lng": -96.67682194435054
    },
    "status": "scheduled",
    "createdAt": "2025-10-28T07:36:36.267Z"
  },
  {
    "id": "apt-1762470855321-87",
    "repId": "rep48",
    "date": "2025-11-06",
    "timeSlot": "2pm",
    "customerName": "Ryan Mitchell",
    "customerPhone": "731-563-0684",
    "customerEmail": "ryan.mitchell@email.com",
    "address": {
      "street": "431 Elm St",
      "city": "Jackson",
      "state": "TN",
      "zip": "38305",
      "lat": 36.134573219215795,
      "lng": -87.03085644827809
    },
    "status": "scheduled",
    "createdAt": "2025-10-13T05:27:23.211Z"
  },
  {
    "id": "apt-1762470855321-88",
    "repId": "rep49",
    "date": "2025-11-06",
    "timeSlot": "10am",
    "customerName": "Ryan Mitchell",
    "customerPhone": "205-588-3734",
    "customerEmail": "ryan.mitchell@email.com",
    "address": {
      "street": "3817 Pine St",
      "city": "Tuscaloosa",
      "state": "AL",
      "zip": "35406",
      "lat": 33.49157808372548,
      "lng": -86.71730494283067
    },
    "status": "scheduled",
    "createdAt": "2025-10-12T14:05:46.192Z"
  },
  {
    "id": "apt-1762470855321-89",
    "repId": "rep49",
    "date": "2025-11-06",
    "timeSlot": "2pm",
    "customerName": "Lisa Brown",
    "customerPhone": "334-897-2356",
    "customerEmail": "lisa.brown@email.com",
    "address": {
      "street": "2072 Maple Dr",
      "city": "Tuscaloosa",
      "state": "AL",
      "zip": "35406",
      "lat": 33.45591305523862,
      "lng": -86.71080029508936
    },
    "status": "scheduled",
    "createdAt": "2025-10-18T19:15:27.993Z"
  },
  {
    "id": "apt-1762470855321-90",
    "repId": "rep49",
    "date": "2025-11-06",
    "timeSlot": "7pm",
    "customerName": "Ryan Mitchell",
    "customerPhone": "334-365-6079",
    "customerEmail": "ryan.mitchell@email.com",
    "address": {
      "street": "4796 Main St",
      "city": "Tuscaloosa",
      "state": "AL",
      "zip": "35406",
      "lat": 33.495837936151005,
      "lng": -86.72207377341303
    },
    "status": "scheduled",
    "createdAt": "2025-10-29T12:03:30.310Z"
  },
  {
    "id": "apt-1762470855321-91",
    "repId": "rep50",
    "date": "2025-11-06",
    "timeSlot": "2pm",
    "customerName": "Matthew Hall",
    "customerPhone": "629-636-2894",
    "customerEmail": "matthew.hall@email.com",
    "address": {
      "street": "2640 Park Blvd",
      "city": "Knoxville",
      "state": "TN",
      "zip": "37923",
      "lat": 36.193409559686934,
      "lng": -86.66595444380292
    },
    "status": "scheduled",
    "createdAt": "2025-11-01T23:27:30.790Z"
  },
  {
    "id": "apt-1762470855321-92",
    "repId": "rep50",
    "date": "2025-11-06",
    "timeSlot": "7pm",
    "customerName": "Kimberly Crump",
    "customerPhone": "931-385-0757",
    "customerEmail": "kimberly.crump@email.com",
    "address": {
      "street": "7172 Park Blvd",
      "city": "Knoxville",
      "state": "TN",
      "zip": "37923",
      "lat": 36.18838560029291,
      "lng": -86.74324891775538
    },
    "status": "scheduled",
    "createdAt": "2025-10-10T18:33:57.417Z"
  },
  {
    "id": "apt-1762470855321-93",
    "repId": "rep51",
    "date": "2025-11-06",
    "timeSlot": "10am",
    "customerName": "Lisa Brown",
    "customerPhone": "601-391-6693",
    "customerEmail": "lisa.brown@email.com",
    "address": {
      "street": "2053 Maple Dr",
      "city": "Carriere",
      "state": "MS",
      "zip": "39426",
      "lat": 32.233362155229486,
      "lng": -90.25452711018863
    },
    "status": "scheduled",
    "createdAt": "2025-10-19T17:36:35.664Z"
  },
  {
    "id": "apt-1762470855321-94",
    "repId": "rep51",
    "date": "2025-11-06",
    "timeSlot": "2pm",
    "customerName": "James Anderson",
    "customerPhone": "601-967-2951",
    "customerEmail": "james.anderson@email.com",
    "address": {
      "street": "6804 Pine St",
      "city": "Carriere",
      "state": "MS",
      "zip": "39426",
      "lat": 32.23603284566044,
      "lng": -90.23388786934667
    },
    "status": "scheduled",
    "createdAt": "2025-10-30T23:17:38.125Z"
  },
  {
    "id": "apt-1762470855321-95",
    "repId": "rep51",
    "date": "2025-11-06",
    "timeSlot": "7pm",
    "customerName": "Matthew Hall",
    "customerPhone": "601-755-8439",
    "customerEmail": "matthew.hall@email.com",
    "address": {
      "street": "3145 Elm St",
      "city": "Carriere",
      "state": "MS",
      "zip": "39426",
      "lat": 32.27515259437924,
      "lng": -90.2035944333492
    },
    "status": "scheduled",
    "createdAt": "2025-10-30T02:33:11.612Z"
  },
  {
    "id": "apt-1762470855321-96",
    "repId": "rep52",
    "date": "2025-11-06",
    "timeSlot": "7pm",
    "customerName": "Ashley Clark",
    "customerPhone": "931-932-1115",
    "customerEmail": "ashley.clark@email.com",
    "address": {
      "street": "8809 Main St",
      "city": "Memphis",
      "state": "TN",
      "zip": "38103",
      "lat": 36.19291898308557,
      "lng": -86.70937597758181
    },
    "status": "scheduled",
    "createdAt": "2025-11-05T02:55:55.062Z"
  },
  {
    "id": "apt-1762470855321-97",
    "repId": "rep53",
    "date": "2025-11-06",
    "timeSlot": "2pm",
    "customerName": "Angela Martinez",
    "customerPhone": "251-569-0186",
    "customerEmail": "angela.martinez@email.com",
    "address": {
      "street": "3137 Maple Dr",
      "city": "Athens",
      "state": "AL",
      "zip": "35611",
      "lat": 33.233683084825806,
      "lng": -86.64062251163244
    },
    "status": "scheduled",
    "createdAt": "2025-10-19T14:41:45.475Z"
  },
  {
    "id": "apt-1762470855321-98",
    "repId": "rep53",
    "date": "2025-11-06",
    "timeSlot": "7pm",
    "customerName": "Lauren Allen",
    "customerPhone": "251-268-7599",
    "customerEmail": "lauren.allen@email.com",
    "address": {
      "street": "6806 Pine St",
      "city": "Athens",
      "state": "AL",
      "zip": "35611",
      "lat": 33.25830823280387,
      "lng": -86.58750593505889
    },
    "status": "scheduled",
    "createdAt": "2025-10-24T00:34:36.530Z"
  },
  {
    "id": "apt-1762470855321-99",
    "repId": "rep54",
    "date": "2025-11-06",
    "timeSlot": "10am",
    "customerName": "Stephanie King",
    "customerPhone": "318-986-5490",
    "customerEmail": "stephanie.king@email.com",
    "address": {
      "street": "7536 Main St",
      "city": "Greenwood",
      "state": "LA",
      "zip": "71033",
      "lat": 30.234896491749954,
      "lng": -91.21031418829942
    },
    "status": "scheduled",
    "createdAt": "2025-10-25T15:30:53.619Z"
  },
  {
    "id": "apt-1762470855321-100",
    "repId": "rep55",
    "date": "2025-11-06",
    "timeSlot": "10am",
    "customerName": "Brandon White",
    "customerPhone": "205-913-7576",
    "customerEmail": "brandon.white@email.com",
    "address": {
      "street": "6355 Pine St",
      "city": "Hoover",
      "state": "AL",
      "zip": "35244",
      "lat": 33.3186363668313,
      "lng": -86.78342265759966
    },
    "status": "scheduled",
    "createdAt": "2025-10-29T07:23:59.381Z"
  },
  {
    "id": "apt-1762470855321-101",
    "repId": "rep55",
    "date": "2025-11-06",
    "timeSlot": "2pm",
    "customerName": "Brian Wright",
    "customerPhone": "334-451-0239",
    "customerEmail": "brian.wright@email.com",
    "address": {
      "street": "8975 Oak Ave",
      "city": "Hoover",
      "state": "AL",
      "zip": "35244",
      "lat": 33.35392583652275,
      "lng": -86.79498823695059
    },
    "status": "scheduled",
    "createdAt": "2025-10-11T11:18:05.630Z"
  },
  {
    "id": "apt-1762470855321-102",
    "repId": "rep57",
    "date": "2025-11-06",
    "timeSlot": "10am",
    "customerName": "Rachel Adams",
    "customerPhone": "501-365-6435",
    "customerEmail": "rachel.adams@email.com",
    "address": {
      "street": "5521 Pine St",
      "city": "RUSSELLVILLE",
      "state": "AR",
      "zip": "72802",
      "lat": 34.63989116602153,
      "lng": -92.19192348151616
    },
    "status": "scheduled",
    "createdAt": "2025-11-04T01:28:14.717Z"
  },
  {
    "id": "apt-1762470855321-103",
    "repId": "rep57",
    "date": "2025-11-06",
    "timeSlot": "2pm",
    "customerName": "Rachel Adams",
    "customerPhone": "501-266-6117",
    "customerEmail": "rachel.adams@email.com",
    "address": {
      "street": "2134 Park Blvd",
      "city": "RUSSELLVILLE",
      "state": "AR",
      "zip": "72802",
      "lat": 34.62773817152115,
      "lng": -92.24769064204457
    },
    "status": "scheduled",
    "createdAt": "2025-10-30T15:05:25.991Z"
  },
  {
    "id": "apt-1762470855321-104",
    "repId": "rep58",
    "date": "2025-11-06",
    "timeSlot": "10am",
    "customerName": "Lauren Allen",
    "customerPhone": "501-963-2132",
    "customerEmail": "lauren.allen@email.com",
    "address": {
      "street": "4457 Oak Ave",
      "city": "Royal",
      "state": "AR",
      "zip": "71968",
      "lat": 34.739451783100186,
      "lng": -92.23359660260107
    },
    "status": "scheduled",
    "createdAt": "2025-11-01T13:17:06.456Z"
  },
  {
    "id": "apt-1762470855321-105",
    "repId": "rep58",
    "date": "2025-11-06",
    "timeSlot": "7pm",
    "customerName": "Lisa Brown",
    "customerPhone": "479-249-2109",
    "customerEmail": "lisa.brown@email.com",
    "address": {
      "street": "107 Elm St",
      "city": "Royal",
      "state": "AR",
      "zip": "71968",
      "lat": 34.756639396198345,
      "lng": -92.20420790279502
    },
    "status": "scheduled",
    "createdAt": "2025-10-11T22:08:06.351Z"
  },
  {
    "id": "apt-1762470855321-106",
    "repId": "rep59",
    "date": "2025-11-06",
    "timeSlot": "10am",
    "customerName": "David Lee",
    "customerPhone": "409-308-2178",
    "customerEmail": "david.lee@email.com",
    "address": {
      "street": "7484 Main St",
      "city": "GREENVILLE",
      "state": "TX",
      "zip": "75401",
      "lat": 32.903669650990004,
      "lng": -97.0742151195851
    },
    "status": "scheduled",
    "createdAt": "2025-11-03T18:59:15.578Z"
  },
  {
    "id": "apt-1762470855321-107",
    "repId": "rep59",
    "date": "2025-11-06",
    "timeSlot": "2pm",
    "customerName": "Ashley Clark",
    "customerPhone": "940-844-4937",
    "customerEmail": "ashley.clark@email.com",
    "address": {
      "street": "6710 Oak Ave",
      "city": "GREENVILLE",
      "state": "TX",
      "zip": "75401",
      "lat": 32.966130055570105,
      "lng": -97.03811952673729
    },
    "status": "scheduled",
    "createdAt": "2025-10-19T13:54:11.254Z"
  },
  {
    "id": "apt-1762470855321-108",
    "repId": "rep60",
    "date": "2025-11-06",
    "timeSlot": "10am",
    "customerName": "Mike Davis",
    "customerPhone": "830-742-8301",
    "customerEmail": "mike.davis@email.com",
    "address": {
      "street": "6452 Maple Dr",
      "city": "Dallas",
      "state": "TX",
      "zip": "75212",
      "lat": 32.99389157216466,
      "lng": -96.91452847691569
    },
    "status": "scheduled",
    "createdAt": "2025-10-27T19:54:44.251Z"
  },
  {
    "id": "apt-1762470855321-109",
    "repId": "rep60",
    "date": "2025-11-06",
    "timeSlot": "7pm",
    "customerName": "Samantha Lee",
    "customerPhone": "432-610-6748",
    "customerEmail": "samantha.lee@email.com",
    "address": {
      "street": "8919 Oak Ave",
      "city": "Dallas",
      "state": "TX",
      "zip": "75212",
      "lat": 33.0182962167618,
      "lng": -96.86124362463157
    },
    "status": "scheduled",
    "createdAt": "2025-11-04T21:08:35.115Z"
  },
  {
    "id": "apt-1762470855321-110",
    "repId": "rep61",
    "date": "2025-11-06",
    "timeSlot": "10am",
    "customerName": "Michael Thompson",
    "customerPhone": "479-869-5907",
    "customerEmail": "michael.thompson@email.com",
    "address": {
      "street": "7718 Park Blvd",
      "city": "Bentonville",
      "state": "AR",
      "zip": "72712",
      "lat": 34.59433175868154,
      "lng": -92.40021268714217
    },
    "status": "scheduled",
    "createdAt": "2025-10-14T18:50:02.754Z"
  },
  {
    "id": "apt-1762470855321-111",
    "repId": "rep62",
    "date": "2025-11-06",
    "timeSlot": "10am",
    "customerName": "Tom Wilson",
    "customerPhone": "870-351-2920",
    "customerEmail": "tom.wilson@email.com",
    "address": {
      "street": "8144 Maple Dr",
      "city": "Hot Springs",
      "state": "AR",
      "zip": "71913",
      "lat": 34.783368027518236,
      "lng": -92.41869029879828
    },
    "status": "scheduled",
    "createdAt": "2025-10-11T06:26:37.111Z"
  },
  {
    "id": "apt-1762470855321-112",
    "repId": "rep62",
    "date": "2025-11-06",
    "timeSlot": "7pm",
    "customerName": "Samantha Lee",
    "customerPhone": "501-540-4861",
    "customerEmail": "samantha.lee@email.com",
    "address": {
      "street": "8083 Park Blvd",
      "city": "Hot Springs",
      "state": "AR",
      "zip": "71913",
      "lat": 34.75387099587968,
      "lng": -92.42740157654664
    },
    "status": "scheduled",
    "createdAt": "2025-10-10T00:05:55.259Z"
  },
  {
    "id": "apt-1762470855321-113",
    "repId": "rep63",
    "date": "2025-11-06",
    "timeSlot": "7pm",
    "customerName": "Jason Turner",
    "customerPhone": "985-575-5112",
    "customerEmail": "jason.turner@email.com",
    "address": {
      "street": "2952 Oak Ave",
      "city": "Benton",
      "state": "LA",
      "zip": "71006",
      "lat": 30.478643464622653,
      "lng": -91.21262402879468
    },
    "status": "scheduled",
    "createdAt": "2025-11-04T17:09:03.761Z"
  },
  {
    "id": "apt-1762470855321-114",
    "repId": "rep64",
    "date": "2025-11-06",
    "timeSlot": "10am",
    "customerName": "Nicole Green",
    "customerPhone": "251-983-4793",
    "customerEmail": "nicole.green@email.com",
    "address": {
      "street": "2365 Cedar Ln",
      "city": "Leeds",
      "state": "AL",
      "zip": "35094",
      "lat": 33.50420717351581,
      "lng": -86.71047989270856
    },
    "status": "scheduled",
    "createdAt": "2025-10-13T14:27:34.892Z"
  },
  {
    "id": "apt-1762470855321-115",
    "repId": "rep65",
    "date": "2025-11-06",
    "timeSlot": "2pm",
    "customerName": "Joshua Young",
    "customerPhone": "469-264-1838",
    "customerEmail": "joshua.young@email.com",
    "address": {
      "street": "3701 Main St",
      "city": "Houston",
      "state": "TX",
      "zip": "77069",
      "lat": 32.773578687755915,
      "lng": -96.70985638849383
    },
    "status": "scheduled",
    "createdAt": "2025-10-10T07:35:18.133Z"
  },
  {
    "id": "apt-1762470855321-116",
    "repId": "rep67",
    "date": "2025-11-06",
    "timeSlot": "2pm",
    "customerName": "Jason Turner",
    "customerPhone": "865-581-0760",
    "customerEmail": "jason.turner@email.com",
    "address": {
      "street": "8201 Main St",
      "city": "Sequatchie",
      "state": "TN",
      "zip": "37374",
      "lat": 35.923745716869945,
      "lng": -86.70952918934003
    },
    "status": "scheduled",
    "createdAt": "2025-11-03T22:58:55.258Z"
  },
  {
    "id": "apt-1762470855321-117",
    "repId": "rep68",
    "date": "2025-11-06",
    "timeSlot": "10am",
    "customerName": "Mike Davis",
    "customerPhone": "865-619-2809",
    "customerEmail": "mike.davis@email.com",
    "address": {
      "street": "1389 Park Blvd",
      "city": "Memphis",
      "state": "TN",
      "zip": "38120",
      "lat": 35.9763614256798,
      "lng": -86.69127746236327
    },
    "status": "scheduled",
    "createdAt": "2025-10-22T16:08:39.339Z"
  },
  {
    "id": "apt-1762470855321-118",
    "repId": "rep69",
    "date": "2025-11-06",
    "timeSlot": "10am",
    "customerName": "Robert Taylor",
    "customerPhone": "404-487-2439",
    "customerEmail": "robert.taylor@email.com",
    "address": {
      "street": "3793 Pine St",
      "city": "Morrow",
      "state": "GA",
      "zip": "30260",
      "lat": 33.601746212541585,
      "lng": -84.41667709439044
    },
    "status": "scheduled",
    "createdAt": "2025-11-01T02:13:46.817Z"
  },
  {
    "id": "apt-1762470855321-119",
    "repId": "rep69",
    "date": "2025-11-06",
    "timeSlot": "2pm",
    "customerName": "Eric Rodriguez",
    "customerPhone": "470-891-9693",
    "customerEmail": "eric.rodriguez@email.com",
    "address": {
      "street": "6003 Elm St",
      "city": "Morrow",
      "state": "GA",
      "zip": "30260",
      "lat": 33.59128411025874,
      "lng": -84.37244548401397
    },
    "status": "scheduled",
    "createdAt": "2025-11-04T17:01:35.809Z"
  },
  {
    "id": "apt-1762470855321-120",
    "repId": "rep71",
    "date": "2025-11-06",
    "timeSlot": "10am",
    "customerName": "Lauren Allen",
    "customerPhone": "985-938-2414",
    "customerEmail": "lauren.allen@email.com",
    "address": {
      "street": "4938 Elm St",
      "city": "Lafayette",
      "state": "LA",
      "zip": "70506",
      "lat": 30.633082680644936,
      "lng": -91.10877419644137
    },
    "status": "scheduled",
    "createdAt": "2025-10-27T21:55:02.784Z"
  },
  {
    "id": "apt-1762470855321-121",
    "repId": "rep71",
    "date": "2025-11-06",
    "timeSlot": "2pm",
    "customerName": "Jason Turner",
    "customerPhone": "504-660-9222",
    "customerEmail": "jason.turner@email.com",
    "address": {
      "street": "5775 Oak Ave",
      "city": "Lafayette",
      "state": "LA",
      "zip": "70506",
      "lat": 30.644423458014323,
      "lng": -91.15089553687343
    },
    "status": "scheduled",
    "createdAt": "2025-10-12T00:44:08.533Z"
  },
  {
    "id": "apt-1762470855321-122",
    "repId": "rep74",
    "date": "2025-11-06",
    "timeSlot": "10am",
    "customerName": "David Lee",
    "customerPhone": "830-964-8843",
    "customerEmail": "david.lee@email.com",
    "address": {
      "street": "222 Oak Ave",
      "city": "Conroe",
      "state": "TX",
      "zip": "77384",
      "lat": 32.64154972044138,
      "lng": -96.9152926072324
    },
    "status": "scheduled",
    "createdAt": "2025-11-05T14:36:19.577Z"
  },
  {
    "id": "apt-1762470855321-123",
    "repId": "rep74",
    "date": "2025-11-06",
    "timeSlot": "2pm",
    "customerName": "Jennifer Martinez",
    "customerPhone": "832-768-8314",
    "customerEmail": "jennifer.martinez@email.com",
    "address": {
      "street": "3996 Maple Dr",
      "city": "Conroe",
      "state": "TX",
      "zip": "77384",
      "lat": 32.68816240791194,
      "lng": -96.84836040666
    },
    "status": "scheduled",
    "createdAt": "2025-10-27T14:36:59.525Z"
  },
  {
    "id": "apt-1762470855321-124",
    "repId": "rep74",
    "date": "2025-11-06",
    "timeSlot": "7pm",
    "customerName": "Jennifer Martinez",
    "customerPhone": "940-624-6340",
    "customerEmail": "jennifer.martinez@email.com",
    "address": {
      "street": "105 Cedar Ln",
      "city": "Conroe",
      "state": "TX",
      "zip": "77384",
      "lat": 32.69721983902888,
      "lng": -96.86279523753274
    },
    "status": "scheduled",
    "createdAt": "2025-10-29T12:31:17.768Z"
  },
  {
    "id": "apt-1762470855321-125",
    "repId": "rep75",
    "date": "2025-11-06",
    "timeSlot": "2pm",
    "customerName": "Mike Davis",
    "customerPhone": "901-393-0734",
    "customerEmail": "mike.davis@email.com",
    "address": {
      "street": "2658 Oak Ave",
      "city": "Chattanooga",
      "state": "TN",
      "zip": "37421",
      "lat": 36.337386715206556,
      "lng": -86.59669427626892
    },
    "status": "scheduled",
    "createdAt": "2025-10-14T16:12:44.827Z"
  },
  {
    "id": "apt-1762470855321-126",
    "repId": "rep75",
    "date": "2025-11-06",
    "timeSlot": "7pm",
    "customerName": "Jennifer Martinez",
    "customerPhone": "629-217-8742",
    "customerEmail": "jennifer.martinez@email.com",
    "address": {
      "street": "9012 Oak Ave",
      "city": "Chattanooga",
      "state": "TN",
      "zip": "37421",
      "lat": 36.35888995553757,
      "lng": -86.58804343333587
    },
    "status": "scheduled",
    "createdAt": "2025-11-01T03:05:39.091Z"
  },
  {
    "id": "apt-1762470855321-127",
    "repId": "rep76",
    "date": "2025-11-06",
    "timeSlot": "10am",
    "customerName": "Samantha Lee",
    "customerPhone": "773-984-3435",
    "customerEmail": "samantha.lee@email.com",
    "address": {
      "street": "5171 Pine St",
      "city": "Chester",
      "state": "IL",
      "zip": "62233",
      "lat": 38.42016910281368,
      "lng": -90.27547410048624
    },
    "status": "scheduled",
    "createdAt": "2025-10-26T00:02:40.266Z"
  },
  {
    "id": "apt-1762470855321-128",
    "repId": "rep76",
    "date": "2025-11-06",
    "timeSlot": "7pm",
    "customerName": "Jennifer Martinez",
    "customerPhone": "312-410-5718",
    "customerEmail": "jennifer.martinez@email.com",
    "address": {
      "street": "387 Oak Ave",
      "city": "Chester",
      "state": "IL",
      "zip": "62233",
      "lat": 38.44735271528374,
      "lng": -90.23875186173568
    },
    "status": "scheduled",
    "createdAt": "2025-11-05T20:21:37.780Z"
  },
  {
    "id": "apt-1762470855321-129",
    "repId": "rep77",
    "date": "2025-11-06",
    "timeSlot": "10am",
    "customerName": "Stephanie King",
    "customerPhone": "601-403-2847",
    "customerEmail": "stephanie.king@email.com",
    "address": {
      "street": "6411 Pine St",
      "city": "Brandon",
      "state": "MS",
      "zip": "39047",
      "lat": 32.389759162273286,
      "lng": -90.00433567350741
    },
    "status": "scheduled",
    "createdAt": "2025-10-21T08:51:18.945Z"
  },
  {
    "id": "apt-1762470855322-130",
    "repId": "rep77",
    "date": "2025-11-06",
    "timeSlot": "2pm",
    "customerName": "Jessica Moore",
    "customerPhone": "601-989-7026",
    "customerEmail": "jessica.moore@email.com",
    "address": {
      "street": "9241 Maple Dr",
      "city": "Brandon",
      "state": "MS",
      "zip": "39047",
      "lat": 32.384598335640945,
      "lng": -90.05599367469848
    },
    "status": "scheduled",
    "createdAt": "2025-10-12T13:51:43.079Z"
  },
  {
    "id": "apt-1762470855322-131",
    "repId": "rep77",
    "date": "2025-11-06",
    "timeSlot": "7pm",
    "customerName": "Mike Davis",
    "customerPhone": "769-427-2990",
    "customerEmail": "mike.davis@email.com",
    "address": {
      "street": "3224 Cedar Ln",
      "city": "Brandon",
      "state": "MS",
      "zip": "39047",
      "lat": 32.45668775470324,
      "lng": -89.98792513880936
    },
    "status": "scheduled",
    "createdAt": "2025-10-19T18:42:06.775Z"
  },
  {
    "id": "apt-1762470855322-132",
    "repId": "rep78",
    "date": "2025-11-06",
    "timeSlot": "2pm",
    "customerName": "Michelle Walker",
    "customerPhone": "931-818-9492",
    "customerEmail": "michelle.walker@email.com",
    "address": {
      "street": "8365 Elm St",
      "city": "Collierville",
      "state": "TN",
      "zip": "38017",
      "lat": 36.30895985995951,
      "lng": -86.86138609971307
    },
    "status": "scheduled",
    "createdAt": "2025-10-18T14:47:44.096Z"
  },
  {
    "id": "apt-1762470855322-133",
    "repId": "rep78",
    "date": "2025-11-06",
    "timeSlot": "7pm",
    "customerName": "Michael Thompson",
    "customerPhone": "629-936-6389",
    "customerEmail": "michael.thompson@email.com",
    "address": {
      "street": "5780 Maple Dr",
      "city": "Collierville",
      "state": "TN",
      "zip": "38017",
      "lat": 36.22506415199588,
      "lng": -86.82265328371678
    },
    "status": "scheduled",
    "createdAt": "2025-10-28T05:04:29.628Z"
  },
  {
    "id": "apt-1762470855322-134",
    "repId": "rep79",
    "date": "2025-11-06",
    "timeSlot": "2pm",
    "customerName": "Melissa Scott",
    "customerPhone": "865-387-1195",
    "customerEmail": "melissa.scott@email.com",
    "address": {
      "street": "7270 Cedar Ln",
      "city": "Knoxville",
      "state": "TN",
      "zip": "37918",
      "lat": 36.40411221783901,
      "lng": -86.67192657085917
    },
    "status": "scheduled",
    "createdAt": "2025-10-26T04:46:12.824Z"
  },
  {
    "id": "apt-1762470855322-135",
    "repId": "rep79",
    "date": "2025-11-06",
    "timeSlot": "7pm",
    "customerName": "Christopher Harris",
    "customerPhone": "865-792-9089",
    "customerEmail": "christopher.harris@email.com",
    "address": {
      "street": "3213 Cedar Ln",
      "city": "Knoxville",
      "state": "TN",
      "zip": "37918",
      "lat": 36.41395909475573,
      "lng": -86.7426161757776
    },
    "status": "scheduled",
    "createdAt": "2025-10-09T07:42:34.876Z"
  },
  {
    "id": "apt-1762470855322-136",
    "repId": "rep80",
    "date": "2025-11-06",
    "timeSlot": "2pm",
    "customerName": "Matthew Hall",
    "customerPhone": "865-660-0040",
    "customerEmail": "matthew.hall@email.com",
    "address": {
      "street": "284 Oak Ave",
      "city": "Lebanon",
      "state": "TN",
      "zip": "37087",
      "lat": 36.167591061822726,
      "lng": -86.99143004134824
    },
    "status": "scheduled",
    "createdAt": "2025-10-17T13:15:03.383Z"
  },
  {
    "id": "apt-1762470855322-137",
    "repId": "rep80",
    "date": "2025-11-06",
    "timeSlot": "7pm",
    "customerName": "Kimberly Crump",
    "customerPhone": "629-578-9155",
    "customerEmail": "kimberly.crump@email.com",
    "address": {
      "street": "9612 Maple Dr",
      "city": "Lebanon",
      "state": "TN",
      "zip": "37087",
      "lat": 36.24675182199886,
      "lng": -87.01119112719125
    },
    "status": "scheduled",
    "createdAt": "2025-10-18T02:38:37.330Z"
  },
  {
    "id": "apt-1762470855322-138",
    "repId": "rep81",
    "date": "2025-11-06",
    "timeSlot": "10am",
    "customerName": "Robert Taylor",
    "customerPhone": "555-631-2547",
    "customerEmail": "robert.taylor@email.com",
    "address": {
      "street": "9850 Cedar Ln",
      "city": "Albany",
      "state": "Ga",
      "zip": "31605",
      "lat": 33.59806956496596,
      "lng": -84.31439005374463
    },
    "status": "scheduled",
    "createdAt": "2025-11-05T12:52:56.083Z"
  },
  {
    "id": "apt-1762470855322-139",
    "repId": "rep81",
    "date": "2025-11-06",
    "timeSlot": "7pm",
    "customerName": "Ryan Mitchell",
    "customerPhone": "555-773-0844",
    "customerEmail": "ryan.mitchell@email.com",
    "address": {
      "street": "7367 Oak Ave",
      "city": "Albany",
      "state": "Ga",
      "zip": "31605",
      "lat": 33.61955321959197,
      "lng": -84.2703031159422
    },
    "status": "scheduled",
    "createdAt": "2025-10-22T07:51:22.326Z"
  },
  {
    "id": "apt-1762470855322-140",
    "repId": "rep82",
    "date": "2025-11-06",
    "timeSlot": "10am",
    "customerName": "Amanda Garcia",
    "customerPhone": "229-917-3010",
    "customerEmail": "amanda.garcia@email.com",
    "address": {
      "street": "9393 Pine St",
      "city": "Johns Creek",
      "state": "GA",
      "zip": "30097",
      "lat": 33.557001800016266,
      "lng": -84.61160501537029
    },
    "status": "scheduled",
    "createdAt": "2025-10-27T05:40:41.652Z"
  },
  {
    "id": "apt-1762470855322-141",
    "repId": "rep82",
    "date": "2025-11-06",
    "timeSlot": "2pm",
    "customerName": "Ryan Mitchell",
    "customerPhone": "912-956-5298",
    "customerEmail": "ryan.mitchell@email.com",
    "address": {
      "street": "1145 Elm St",
      "city": "Johns Creek",
      "state": "GA",
      "zip": "30097",
      "lat": 33.50403924625873,
      "lng": -84.57399885154102
    },
    "status": "scheduled",
    "createdAt": "2025-10-26T10:53:46.772Z"
  },
  {
    "id": "apt-1762470855322-142",
    "repId": "rep84",
    "date": "2025-11-06",
    "timeSlot": "10am",
    "customerName": "Jessica Moore",
    "customerPhone": "555-214-7571",
    "customerEmail": "jessica.moore@email.com",
    "address": {
      "street": "6800 Park Blvd",
      "city": "Sicklerville",
      "state": "NJ",
      "zip": "08081",
      "lat": 39.92896096751392,
      "lng": -74.70263027107787
    },
    "status": "scheduled",
    "createdAt": "2025-11-02T05:10:49.021Z"
  },
  {
    "id": "apt-1762470855322-143",
    "repId": "rep84",
    "date": "2025-11-06",
    "timeSlot": "2pm",
    "customerName": "Angela Martinez",
    "customerPhone": "555-342-8177",
    "customerEmail": "angela.martinez@email.com",
    "address": {
      "street": "2324 Main St",
      "city": "Sicklerville",
      "state": "NJ",
      "zip": "08081",
      "lat": 39.96007059581952,
      "lng": -74.71444234379871
    },
    "status": "scheduled",
    "createdAt": "2025-10-28T01:36:57.450Z"
  },
  {
    "id": "apt-1762470855322-144",
    "repId": "rep84",
    "date": "2025-11-06",
    "timeSlot": "7pm",
    "customerName": "Joshua Young",
    "customerPhone": "555-542-9593",
    "customerEmail": "joshua.young@email.com",
    "address": {
      "street": "4395 Pine St",
      "city": "Sicklerville",
      "state": "NJ",
      "zip": "08081",
      "lat": 39.97899439149201,
      "lng": -74.63051541779456
    },
    "status": "scheduled",
    "createdAt": "2025-10-23T02:54:53.122Z"
  },
  {
    "id": "apt-1762470855322-145",
    "repId": "rep85",
    "date": "2025-11-06",
    "timeSlot": "7pm",
    "customerName": "Brian Wright",
    "customerPhone": "769-997-8168",
    "customerEmail": "brian.wright@email.com",
    "address": {
      "street": "9677 Maple Dr",
      "city": "Columbus",
      "state": "MS",
      "zip": "39701",
      "lat": 32.2477153313965,
      "lng": -89.96219882504104
    },
    "status": "scheduled",
    "createdAt": "2025-10-24T16:37:50.190Z"
  },
  {
    "id": "apt-1762470855322-146",
    "repId": "rep86",
    "date": "2025-11-06",
    "timeSlot": "10am",
    "customerName": "Jennifer Martinez",
    "customerPhone": "361-331-8701",
    "customerEmail": "jennifer.martinez@email.com",
    "address": {
      "street": "1174 Main St",
      "city": "Tyler",
      "state": "TX",
      "zip": "75703",
      "lat": 32.612994803489464,
      "lng": -96.8620000382964
    },
    "status": "scheduled",
    "createdAt": "2025-10-19T07:05:31.240Z"
  },
  {
    "id": "apt-1762470855322-147",
    "repId": "rep86",
    "date": "2025-11-06",
    "timeSlot": "2pm",
    "customerName": "Brian Wright",
    "customerPhone": "936-662-9824",
    "customerEmail": "brian.wright@email.com",
    "address": {
      "street": "8616 Park Blvd",
      "city": "Tyler",
      "state": "TX",
      "zip": "75703",
      "lat": 32.6355256419881,
      "lng": -96.8372332568167
    },
    "status": "scheduled",
    "createdAt": "2025-10-30T12:21:08.693Z"
  },
  {
    "id": "apt-1762470855322-148",
    "repId": "rep88",
    "date": "2025-11-06",
    "timeSlot": "7pm",
    "customerName": "Christopher Harris",
    "customerPhone": "539-256-6734",
    "customerEmail": "christopher.harris@email.com",
    "address": {
      "street": "481 Oak Ave",
      "city": "Oklahoma City",
      "state": "OK",
      "zip": "73134",
      "lat": 35.53070963822778,
      "lng": -97.61313343318488
    },
    "status": "scheduled",
    "createdAt": "2025-10-16T16:14:46.055Z"
  },
  {
    "id": "apt-1762470855322-149",
    "repId": "rep89",
    "date": "2025-11-06",
    "timeSlot": "2pm",
    "customerName": "Stephanie King",
    "customerPhone": "662-777-8703",
    "customerEmail": "stephanie.king@email.com",
    "address": {
      "street": "6217 Cedar Ln",
      "city": "Southaven",
      "state": "MS",
      "zip": "38671",
      "lat": 32.10071704832984,
      "lng": -90.00868468248946
    },
    "status": "scheduled",
    "createdAt": "2025-10-16T05:32:57.862Z"
  },
  {
    "id": "apt-1762470855322-150",
    "repId": "rep90",
    "date": "2025-11-06",
    "timeSlot": "10am",
    "customerName": "Melissa Scott",
    "customerPhone": "228-632-4041",
    "customerEmail": "melissa.scott@email.com",
    "address": {
      "street": "3339 Cedar Ln",
      "city": "Pearl",
      "state": "MS",
      "zip": "39208",
      "lat": 32.24251067743327,
      "lng": -90.064324527443
    },
    "status": "scheduled",
    "createdAt": "2025-10-14T08:43:16.995Z"
  },
  {
    "id": "apt-1762470855322-151",
    "repId": "rep90",
    "date": "2025-11-06",
    "timeSlot": "7pm",
    "customerName": "Christopher Harris",
    "customerPhone": "662-853-0741",
    "customerEmail": "christopher.harris@email.com",
    "address": {
      "street": "9207 Elm St",
      "city": "Pearl",
      "state": "MS",
      "zip": "39208",
      "lat": 32.16685478946941,
      "lng": -90.0468423710099
    },
    "status": "scheduled",
    "createdAt": "2025-11-04T04:49:28.121Z"
  },
  {
    "id": "apt-1762470855322-152",
    "repId": "rep91",
    "date": "2025-11-06",
    "timeSlot": "10am",
    "customerName": "Angela Martinez",
    "customerPhone": "601-808-4409",
    "customerEmail": "angela.martinez@email.com",
    "address": {
      "street": "7131 Elm St",
      "city": "Southaven",
      "state": "MS",
      "zip": "38671",
      "lat": 32.397841770637406,
      "lng": -90.09274932182214
    },
    "status": "scheduled",
    "createdAt": "2025-11-01T12:41:02.384Z"
  },
  {
    "id": "apt-1762470855322-153",
    "repId": "rep91",
    "date": "2025-11-06",
    "timeSlot": "7pm",
    "customerName": "Brandon White",
    "customerPhone": "228-685-9272",
    "customerEmail": "brandon.white@email.com",
    "address": {
      "street": "9664 Main St",
      "city": "Southaven",
      "state": "MS",
      "zip": "38671",
      "lat": 32.45846562854594,
      "lng": -90.08592479086673
    },
    "status": "scheduled",
    "createdAt": "2025-11-04T02:08:51.448Z"
  },
  {
    "id": "apt-1762470855322-154",
    "repId": "rep92",
    "date": "2025-11-06",
    "timeSlot": "10am",
    "customerName": "Rachel Adams",
    "customerPhone": "228-437-4528",
    "customerEmail": "rachel.adams@email.com",
    "address": {
      "street": "2312 Main St",
      "city": "Greenville",
      "state": "MS",
      "zip": "38701",
      "lat": 32.087764336610725,
      "lng": -90.25352009502217
    },
    "status": "scheduled",
    "createdAt": "2025-10-19T15:11:43.272Z"
  },
  {
    "id": "apt-1762470855322-155",
    "repId": "rep95",
    "date": "2025-11-06",
    "timeSlot": "10am",
    "customerName": "Lauren Allen",
    "customerPhone": "337-630-3914",
    "customerEmail": "lauren.allen@email.com",
    "address": {
      "street": "4573 Cedar Ln",
      "city": "Shreveport",
      "state": "LA",
      "zip": "71101",
      "lat": 30.509897106254463,
      "lng": -91.23908981190486
    },
    "status": "scheduled",
    "createdAt": "2025-10-08T23:58:45.194Z"
  },
  {
    "id": "apt-1762470855322-156",
    "repId": "rep95",
    "date": "2025-11-06",
    "timeSlot": "7pm",
    "customerName": "Jennifer Martinez",
    "customerPhone": "337-632-0057",
    "customerEmail": "jennifer.martinez@email.com",
    "address": {
      "street": "3930 Main St",
      "city": "Shreveport",
      "state": "LA",
      "zip": "71101",
      "lat": 30.455449598219385,
      "lng": -91.21679025038637
    },
    "status": "scheduled",
    "createdAt": "2025-10-27T17:19:45.284Z"
  },
  {
    "id": "apt-1762470855322-157",
    "repId": "rep96",
    "date": "2025-11-06",
    "timeSlot": "2pm",
    "customerName": "James Anderson",
    "customerPhone": "769-703-6889",
    "customerEmail": "james.anderson@email.com",
    "address": {
      "street": "6832 Cedar Ln",
      "city": "Southaven",
      "state": "MS",
      "zip": "38671",
      "lat": 32.451599431543926,
      "lng": -90.27271867693685
    },
    "status": "scheduled",
    "createdAt": "2025-10-18T00:31:08.426Z"
  },
  {
    "id": "apt-1762470855322-158",
    "repId": "rep97",
    "date": "2025-11-06",
    "timeSlot": "10am",
    "customerName": "Kevin Brown",
    "customerPhone": "662-686-7464",
    "customerEmail": "kevin.brown@email.com",
    "address": {
      "street": "1168 Elm St",
      "city": "Southaven",
      "state": "MS",
      "zip": "38671",
      "lat": 32.18602856029288,
      "lng": -90.24130481948528
    },
    "status": "scheduled",
    "createdAt": "2025-10-27T22:27:10.600Z"
  },
  {
    "id": "apt-1762470855322-159",
    "repId": "rep97",
    "date": "2025-11-06",
    "timeSlot": "2pm",
    "customerName": "Stephanie King",
    "customerPhone": "601-329-1699",
    "customerEmail": "stephanie.king@email.com",
    "address": {
      "street": "6680 Pine St",
      "city": "Southaven",
      "state": "MS",
      "zip": "38671",
      "lat": 32.176597790286834,
      "lng": -90.31553125246748
    },
    "status": "scheduled",
    "createdAt": "2025-11-06T20:39:58.581Z"
  },
  {
    "id": "apt-1762470855322-160",
    "repId": "rep98",
    "date": "2025-11-06",
    "timeSlot": "10am",
    "customerName": "Melissa Scott",
    "customerPhone": "816-776-6325",
    "customerEmail": "melissa.scott@email.com",
    "address": {
      "street": "4979 Elm St",
      "city": "Kansas City",
      "state": "MO",
      "zip": "64117",
      "lat": 38.80357652173622,
      "lng": -89.96696673469394
    },
    "status": "scheduled",
    "createdAt": "2025-10-28T00:37:55.294Z"
  },
  {
    "id": "apt-1762470855322-161",
    "repId": "rep98",
    "date": "2025-11-06",
    "timeSlot": "7pm",
    "customerName": "Ryan Mitchell",
    "customerPhone": "816-594-5977",
    "customerEmail": "ryan.mitchell@email.com",
    "address": {
      "street": "2347 Oak Ave",
      "city": "Kansas City",
      "state": "MO",
      "zip": "64117",
      "lat": 38.874195966252906,
      "lng": -89.98826368639259
    },
    "status": "scheduled",
    "createdAt": "2025-10-21T17:01:28.378Z"
  },
  {
    "id": "apt-1762470855322-162",
    "repId": "rep1",
    "date": "2025-11-07",
    "timeSlot": "2pm",
    "customerName": "Lisa Brown",
    "customerPhone": "770-657-1135",
    "customerEmail": "lisa.brown@email.com",
    "address": {
      "street": "7232 Main St",
      "city": "KENNESAW",
      "state": "GA",
      "zip": "30144",
      "lat": 33.782157259804606,
      "lng": -84.33044329845242
    },
    "status": "scheduled",
    "createdAt": "2025-10-31T22:41:04.453Z"
  },
  {
    "id": "apt-1762470855322-163",
    "repId": "rep1",
    "date": "2025-11-07",
    "timeSlot": "7pm",
    "customerName": "Jason Turner",
    "customerPhone": "762-930-2974",
    "customerEmail": "jason.turner@email.com",
    "address": {
      "street": "9427 Maple Dr",
      "city": "KENNESAW",
      "state": "GA",
      "zip": "30144",
      "lat": 33.78749005193559,
      "lng": -84.36713578101626
    },
    "status": "scheduled",
    "createdAt": "2025-10-18T22:48:11.223Z"
  },
  {
    "id": "apt-1762470855322-164",
    "repId": "rep2",
    "date": "2025-11-07",
    "timeSlot": "10am",
    "customerName": "Ryan Mitchell",
    "customerPhone": "281-322-1468",
    "customerEmail": "ryan.mitchell@email.com",
    "address": {
      "street": "1720 Pine St",
      "city": "MCKINNEY",
      "state": "TX",
      "zip": "75071",
      "lat": 32.67113752042777,
      "lng": -96.97087103034552
    },
    "status": "scheduled",
    "createdAt": "2025-10-17T22:51:47.405Z"
  },
  {
    "id": "apt-1762470855322-165",
    "repId": "rep2",
    "date": "2025-11-07",
    "timeSlot": "2pm",
    "customerName": "Rachel Adams",
    "customerPhone": "325-911-8651",
    "customerEmail": "rachel.adams@email.com",
    "address": {
      "street": "736 Elm St",
      "city": "MCKINNEY",
      "state": "TX",
      "zip": "75071",
      "lat": 32.72440861686743,
      "lng": -96.92841712292501
    },
    "status": "scheduled",
    "createdAt": "2025-11-04T11:15:30.559Z"
  },
  {
    "id": "apt-1762470855322-166",
    "repId": "rep2",
    "date": "2025-11-07",
    "timeSlot": "7pm",
    "customerName": "Amanda Garcia",
    "customerPhone": "210-764-8072",
    "customerEmail": "amanda.garcia@email.com",
    "address": {
      "street": "1554 Maple Dr",
      "city": "MCKINNEY",
      "state": "TX",
      "zip": "75071",
      "lat": 32.74487988150873,
      "lng": -96.95020251402161
    },
    "status": "scheduled",
    "createdAt": "2025-11-01T02:44:31.497Z"
  },
  {
    "id": "apt-1762470855322-167",
    "repId": "rep4",
    "date": "2025-11-07",
    "timeSlot": "10am",
    "customerName": "Jessica Moore",
    "customerPhone": "210-412-3288",
    "customerEmail": "jessica.moore@email.com",
    "address": {
      "street": "5893 Maple Dr",
      "city": "COPPELL",
      "state": "TX",
      "zip": "75019",
      "lat": 32.728643275827565,
      "lng": -96.67120353679206
    },
    "status": "scheduled",
    "createdAt": "2025-10-23T02:17:30.305Z"
  },
  {
    "id": "apt-1762470855322-168",
    "repId": "rep5",
    "date": "2025-11-07",
    "timeSlot": "2pm",
    "customerName": "Jason Turner",
    "customerPhone": "501-967-6361",
    "customerEmail": "jason.turner@email.com",
    "address": {
      "street": "3989 Main St",
      "city": "RUSSELLVILLE",
      "state": "AR",
      "zip": "72802",
      "lat": 34.93648336577197,
      "lng": -92.33270423910311
    },
    "status": "scheduled",
    "createdAt": "2025-10-28T20:41:50.530Z"
  },
  {
    "id": "apt-1762470855322-169",
    "repId": "rep5",
    "date": "2025-11-07",
    "timeSlot": "7pm",
    "customerName": "Ashley Clark",
    "customerPhone": "501-261-7238",
    "customerEmail": "ashley.clark@email.com",
    "address": {
      "street": "4449 Oak Ave",
      "city": "RUSSELLVILLE",
      "state": "AR",
      "zip": "72802",
      "lat": 34.95758586789633,
      "lng": -92.33303163921846
    },
    "status": "scheduled",
    "createdAt": "2025-10-13T00:34:17.705Z"
  },
  {
    "id": "apt-1762470855322-170",
    "repId": "rep6",
    "date": "2025-11-07",
    "timeSlot": "2pm",
    "customerName": "Brandon White",
    "customerPhone": "769-715-4397",
    "customerEmail": "brandon.white@email.com",
    "address": {
      "street": "7760 Oak Ave",
      "city": "HORN LAKE",
      "state": "MS",
      "zip": "38637",
      "lat": 32.049976822831,
      "lng": -90.07275775485505
    },
    "status": "scheduled",
    "createdAt": "2025-11-06T18:25:59.323Z"
  },
  {
    "id": "apt-1762470855327-171",
    "repId": "rep7",
    "date": "2025-11-07",
    "timeSlot": "10am",
    "customerName": "Sarah Johnson",
    "customerPhone": "256-718-1439",
    "customerEmail": "sarah.johnson@email.com",
    "address": {
      "street": "3618 Park Blvd",
      "city": "Alabaster",
      "state": "AL",
      "zip": "35114",
      "lat": 33.266351353210936,
      "lng": -86.53199148773761
    },
    "status": "scheduled",
    "createdAt": "2025-10-19T10:18:17.160Z"
  },
  {
    "id": "apt-1762470855327-172",
    "repId": "rep8",
    "date": "2025-11-07",
    "timeSlot": "10am",
    "customerName": "Tom Wilson",
    "customerPhone": "912-851-2122",
    "customerEmail": "tom.wilson@email.com",
    "address": {
      "street": "207 Main St",
      "city": "FAYETTEVILLE",
      "state": "GA",
      "zip": "30214",
      "lat": 33.86542032627275,
      "lng": -84.57229124797074
    },
    "status": "scheduled",
    "createdAt": "2025-10-14T21:19:45.541Z"
  },
  {
    "id": "apt-1762470855327-173",
    "repId": "rep8",
    "date": "2025-11-07",
    "timeSlot": "7pm",
    "customerName": "Jason Turner",
    "customerPhone": "404-441-6447",
    "customerEmail": "jason.turner@email.com",
    "address": {
      "street": "8869 Main St",
      "city": "FAYETTEVILLE",
      "state": "GA",
      "zip": "30214",
      "lat": 33.90022915199787,
      "lng": -84.50903887099653
    },
    "status": "scheduled",
    "createdAt": "2025-10-18T10:56:37.310Z"
  },
  {
    "id": "apt-1762470855327-174",
    "repId": "rep9",
    "date": "2025-11-07",
    "timeSlot": "10am",
    "customerName": "Nicole Green",
    "customerPhone": "470-682-9951",
    "customerEmail": "nicole.green@email.com",
    "address": {
      "street": "7619 Main St",
      "city": "SOUTH FULTON",
      "state": "GA",
      "zip": "30349",
      "lat": 33.958210531575766,
      "lng": -84.2074054061767
    },
    "status": "scheduled",
    "createdAt": "2025-10-08T22:04:34.734Z"
  },
  {
    "id": "apt-1762470855327-175",
    "repId": "rep9",
    "date": "2025-11-07",
    "timeSlot": "2pm",
    "customerName": "Jason Turner",
    "customerPhone": "404-320-9366",
    "customerEmail": "jason.turner@email.com",
    "address": {
      "street": "253 Pine St",
      "city": "SOUTH FULTON",
      "state": "GA",
      "zip": "30349",
      "lat": 33.9910949191236,
      "lng": -84.14198485561445
    },
    "status": "scheduled",
    "createdAt": "2025-10-16T01:44:40.140Z"
  },
  {
    "id": "apt-1762470855327-176",
    "repId": "rep9",
    "date": "2025-11-07",
    "timeSlot": "7pm",
    "customerName": "Jennifer Martinez",
    "customerPhone": "706-390-3837",
    "customerEmail": "jennifer.martinez@email.com",
    "address": {
      "street": "5603 Cedar Ln",
      "city": "SOUTH FULTON",
      "state": "GA",
      "zip": "30349",
      "lat": 33.9731118399916,
      "lng": -84.19055828905057
    },
    "status": "scheduled",
    "createdAt": "2025-10-20T18:05:25.086Z"
  },
  {
    "id": "apt-1762470855327-177",
    "repId": "rep10",
    "date": "2025-11-07",
    "timeSlot": "2pm",
    "customerName": "Matthew Hall",
    "customerPhone": "470-440-8163",
    "customerEmail": "matthew.hall@email.com",
    "address": {
      "street": "2484 Pine St",
      "city": "NEWMAN",
      "state": "GA",
      "zip": "30265",
      "lat": 33.9374814358932,
      "lng": -84.12342120618733
    },
    "status": "scheduled",
    "createdAt": "2025-10-24T09:37:12.606Z"
  },
  {
    "id": "apt-1762470855327-178",
    "repId": "rep10",
    "date": "2025-11-07",
    "timeSlot": "7pm",
    "customerName": "Michelle Walker",
    "customerPhone": "678-459-0258",
    "customerEmail": "michelle.walker@email.com",
    "address": {
      "street": "3191 Maple Dr",
      "city": "NEWMAN",
      "state": "GA",
      "zip": "30265",
      "lat": 33.89536619078384,
      "lng": -84.12304050365132
    },
    "status": "scheduled",
    "createdAt": "2025-10-29T18:21:20.584Z"
  },
  {
    "id": "apt-1762470855327-179",
    "repId": "rep11",
    "date": "2025-11-07",
    "timeSlot": "10am",
    "customerName": "Amanda Garcia",
    "customerPhone": "430-608-2542",
    "customerEmail": "amanda.garcia@email.com",
    "address": {
      "street": "546 Cedar Ln",
      "city": "Houston",
      "state": "TX",
      "zip": "77090",
      "lat": 32.847527435075506,
      "lng": -96.76566915671533
    },
    "status": "scheduled",
    "createdAt": "2025-10-10T17:34:11.149Z"
  },
  {
    "id": "apt-1762470855327-180",
    "repId": "rep12",
    "date": "2025-11-07",
    "timeSlot": "2pm",
    "customerName": "Eric Rodriguez",
    "customerPhone": "256-337-8904",
    "customerEmail": "eric.rodriguez@email.com",
    "address": {
      "street": "2975 Main St",
      "city": "Talladega",
      "state": "AL",
      "zip": "35160",
      "lat": 33.351667359111715,
      "lng": -86.62416156081102
    },
    "status": "scheduled",
    "createdAt": "2025-10-20T08:53:13.102Z"
  },
  {
    "id": "apt-1762470855327-181",
    "repId": "rep12",
    "date": "2025-11-07",
    "timeSlot": "7pm",
    "customerName": "Stephanie King",
    "customerPhone": "251-480-3316",
    "customerEmail": "stephanie.king@email.com",
    "address": {
      "street": "7648 Pine St",
      "city": "Talladega",
      "state": "AL",
      "zip": "35160",
      "lat": 33.30602406001642,
      "lng": -86.57988946381488
    },
    "status": "scheduled",
    "createdAt": "2025-11-06T12:16:52.365Z"
  },
  {
    "id": "apt-1762470855327-182",
    "repId": "rep13",
    "date": "2025-11-07",
    "timeSlot": "10am",
    "customerName": "Stephanie King",
    "customerPhone": "336-614-0084",
    "customerEmail": "stephanie.king@email.com",
    "address": {
      "street": "7203 Elm St",
      "city": "GRAHAM",
      "state": "NC",
      "zip": "27253",
      "lat": 35.247786997940565,
      "lng": -80.64812155510039
    },
    "status": "scheduled",
    "createdAt": "2025-10-15T04:25:05.332Z"
  },
  {
    "id": "apt-1762470855327-183",
    "repId": "rep13",
    "date": "2025-11-07",
    "timeSlot": "7pm",
    "customerName": "Emily White",
    "customerPhone": "919-382-4529",
    "customerEmail": "emily.white@email.com",
    "address": {
      "street": "8470 Park Blvd",
      "city": "GRAHAM",
      "state": "NC",
      "zip": "27253",
      "lat": 35.25232307024711,
      "lng": -80.7054815827205
    },
    "status": "scheduled",
    "createdAt": "2025-10-20T15:16:52.737Z"
  },
  {
    "id": "apt-1762470855327-184",
    "repId": "rep14",
    "date": "2025-11-07",
    "timeSlot": "10am",
    "customerName": "Amanda Garcia",
    "customerPhone": "256-411-5106",
    "customerEmail": "amanda.garcia@email.com",
    "address": {
      "street": "3751 Oak Ave",
      "city": "Opelika",
      "state": "AL",
      "zip": "36804",
      "lat": 33.441644626216394,
      "lng": -86.81869308757392
    },
    "status": "scheduled",
    "createdAt": "2025-10-11T20:47:37.382Z"
  },
  {
    "id": "apt-1762470855327-185",
    "repId": "rep14",
    "date": "2025-11-07",
    "timeSlot": "2pm",
    "customerName": "Jessica Moore",
    "customerPhone": "205-730-3350",
    "customerEmail": "jessica.moore@email.com",
    "address": {
      "street": "6486 Elm St",
      "city": "Opelika",
      "state": "AL",
      "zip": "36804",
      "lat": 33.41776388797679,
      "lng": -86.82496135347864
    },
    "status": "scheduled",
    "createdAt": "2025-10-16T17:19:51.008Z"
  },
  {
    "id": "apt-1762470855327-186",
    "repId": "rep15",
    "date": "2025-11-07",
    "timeSlot": "7pm",
    "customerName": "Brian Wright",
    "customerPhone": "470-923-9987",
    "customerEmail": "brian.wright@email.com",
    "address": {
      "street": "6376 Elm St",
      "city": "SYLVESTER",
      "state": "GA",
      "zip": "31791",
      "lat": 33.629614504785806,
      "lng": -84.58370968624392
    },
    "status": "scheduled",
    "createdAt": "2025-10-26T20:32:49.296Z"
  },
  {
    "id": "apt-1762470855327-187",
    "repId": "rep16",
    "date": "2025-11-07",
    "timeSlot": "10am",
    "customerName": "Sarah Johnson",
    "customerPhone": "225-684-1850",
    "customerEmail": "sarah.johnson@email.com",
    "address": {
      "street": "2112 Cedar Ln",
      "city": "BENTON",
      "state": "LA",
      "zip": "71006",
      "lat": 30.64466305502701,
      "lng": -91.42472658884414
    },
    "status": "scheduled",
    "createdAt": "2025-10-28T02:28:43.977Z"
  },
  {
    "id": "apt-1762470855327-188",
    "repId": "rep16",
    "date": "2025-11-07",
    "timeSlot": "2pm",
    "customerName": "Daniel Lewis",
    "customerPhone": "318-219-4169",
    "customerEmail": "daniel.lewis@email.com",
    "address": {
      "street": "4100 Elm St",
      "city": "BENTON",
      "state": "LA",
      "zip": "71006",
      "lat": 30.576799130313784,
      "lng": -91.43319090739085
    },
    "status": "scheduled",
    "createdAt": "2025-11-04T18:25:56.198Z"
  },
  {
    "id": "apt-1762470855327-189",
    "repId": "rep16",
    "date": "2025-11-07",
    "timeSlot": "7pm",
    "customerName": "Mike Davis",
    "customerPhone": "225-449-3496",
    "customerEmail": "mike.davis@email.com",
    "address": {
      "street": "5344 Elm St",
      "city": "BENTON",
      "state": "LA",
      "zip": "71006",
      "lat": 30.62626637341572,
      "lng": -91.40009228979306
    },
    "status": "scheduled",
    "createdAt": "2025-10-15T20:20:06.875Z"
  },
  {
    "id": "apt-1762470855327-190",
    "repId": "rep17",
    "date": "2025-11-07",
    "timeSlot": "10am",
    "customerName": "Brandon White",
    "customerPhone": "629-404-1283",
    "customerEmail": "brandon.white@email.com",
    "address": {
      "street": "1920 Cedar Ln",
      "city": "BARTLETT",
      "state": "TN",
      "zip": "38135",
      "lat": 36.2567757607149,
      "lng": -86.87477116158162
    },
    "status": "scheduled",
    "createdAt": "2025-11-05T22:18:53.016Z"
  },
  {
    "id": "apt-1762470855327-191",
    "repId": "rep17",
    "date": "2025-11-07",
    "timeSlot": "7pm",
    "customerName": "Robert Taylor",
    "customerPhone": "731-634-5877",
    "customerEmail": "robert.taylor@email.com",
    "address": {
      "street": "7151 Oak Ave",
      "city": "BARTLETT",
      "state": "TN",
      "zip": "38135",
      "lat": 36.29414270617165,
      "lng": -86.82766798156001
    },
    "status": "scheduled",
    "createdAt": "2025-10-23T03:10:15.931Z"
  },
  {
    "id": "apt-1762470855327-192",
    "repId": "rep18",
    "date": "2025-11-07",
    "timeSlot": "7pm",
    "customerName": "Stephanie King",
    "customerPhone": "956-512-9913",
    "customerEmail": "stephanie.king@email.com",
    "address": {
      "street": "5024 Cedar Ln",
      "city": "Houston",
      "state": "TX",
      "zip": "77002",
      "lat": 32.91299462281217,
      "lng": -96.81034425666432
    },
    "status": "scheduled",
    "createdAt": "2025-10-29T14:02:42.534Z"
  },
  {
    "id": "apt-1762470855327-193",
    "repId": "rep19",
    "date": "2025-11-07",
    "timeSlot": "10am",
    "customerName": "Eric Rodriguez",
    "customerPhone": "225-928-6510",
    "customerEmail": "eric.rodriguez@email.com",
    "address": {
      "street": "1180 Oak Ave",
      "city": "BATON ROUGE",
      "state": "LA",
      "zip": "70817",
      "lat": 30.719540080398524,
      "lng": -90.96712207092033
    },
    "status": "scheduled",
    "createdAt": "2025-10-29T02:02:36.962Z"
  },
  {
    "id": "apt-1762470855327-194",
    "repId": "rep20",
    "date": "2025-11-07",
    "timeSlot": "10am",
    "customerName": "Tom Wilson",
    "customerPhone": "843-693-4282",
    "customerEmail": "tom.wilson@email.com",
    "address": {
      "street": "9228 Park Blvd",
      "city": "LADSON",
      "state": "SC",
      "zip": "29456",
      "lat": 33.83547209125876,
      "lng": -81.04043935395167
    },
    "status": "scheduled",
    "createdAt": "2025-11-02T12:33:04.847Z"
  },
  {
    "id": "apt-1762470855327-195",
    "repId": "rep20",
    "date": "2025-11-07",
    "timeSlot": "2pm",
    "customerName": "Joshua Young",
    "customerPhone": "803-628-0299",
    "customerEmail": "joshua.young@email.com",
    "address": {
      "street": "7362 Pine St",
      "city": "LADSON",
      "state": "SC",
      "zip": "29456",
      "lat": 33.8851168452529,
      "lng": -81.05212919588857
    },
    "status": "scheduled",
    "createdAt": "2025-10-10T19:09:40.067Z"
  },
  {
    "id": "apt-1762470855327-196",
    "repId": "rep21",
    "date": "2025-11-07",
    "timeSlot": "10am",
    "customerName": "Lisa Brown",
    "customerPhone": "470-270-2128",
    "customerEmail": "lisa.brown@email.com",
    "address": {
      "street": "2855 Elm St",
      "city": "Macon",
      "state": "GA",
      "zip": "31216",
      "lat": 33.52494609801505,
      "lng": -84.3167684298757
    },
    "status": "scheduled",
    "createdAt": "2025-10-13T00:42:19.284Z"
  },
  {
    "id": "apt-1762470855327-197",
    "repId": "rep22",
    "date": "2025-11-07",
    "timeSlot": "10am",
    "customerName": "Angela Martinez",
    "customerPhone": "251-620-0066",
    "customerEmail": "angela.martinez@email.com",
    "address": {
      "street": "7861 Elm St",
      "city": "Vestavia Hills",
      "state": "AL",
      "zip": "35216",
      "lat": 33.33548593632644,
      "lng": -86.8700758814899
    },
    "status": "scheduled",
    "createdAt": "2025-10-12T01:43:11.200Z"
  },
  {
    "id": "apt-1762470855327-198",
    "repId": "rep22",
    "date": "2025-11-07",
    "timeSlot": "2pm",
    "customerName": "Lauren Allen",
    "customerPhone": "205-294-7302",
    "customerEmail": "lauren.allen@email.com",
    "address": {
      "street": "3494 Pine St",
      "city": "Vestavia Hills",
      "state": "AL",
      "zip": "35216",
      "lat": 33.34810653822477,
      "lng": -86.79295731168166
    },
    "status": "scheduled",
    "createdAt": "2025-10-31T22:17:41.687Z"
  },
  {
    "id": "apt-1762470855327-199",
    "repId": "rep22",
    "date": "2025-11-07",
    "timeSlot": "7pm",
    "customerName": "Daniel Lewis",
    "customerPhone": "205-420-3516",
    "customerEmail": "daniel.lewis@email.com",
    "address": {
      "street": "5381 Park Blvd",
      "city": "Vestavia Hills",
      "state": "AL",
      "zip": "35216",
      "lat": 33.370019729873164,
      "lng": -86.83208987041883
    },
    "status": "scheduled",
    "createdAt": "2025-10-29T03:37:35.882Z"
  },
  {
    "id": "apt-1762470855327-200",
    "repId": "rep23",
    "date": "2025-11-07",
    "timeSlot": "2pm",
    "customerName": "James Anderson",
    "customerPhone": "803-569-8671",
    "customerEmail": "james.anderson@email.com",
    "address": {
      "street": "7462 Elm St",
      "city": "Pelion",
      "state": "SC",
      "zip": "29123",
      "lat": 34.14483801752214,
      "lng": -81.00204522420542
    },
    "status": "scheduled",
    "createdAt": "2025-10-11T09:01:35.355Z"
  },